{"type":"FeatureCollection","features":[{"type":"Feature","properties":{"date_filed":"2007-08-20T00:00:00Z","landlord_tenant":"Landlord","ground":"Intent to Withdraw","petition_number":"L071253","landlord_name":"Barbara  Fedun","address":"30 - 34 Wayne Place","city":"San Francisco","state":"CA","zip":"94133","created_at":"2013-07-14T19:19:01Z","updated_at":"2013-07-14T19:27:03Z","cartodb_georef_status":true,"cartodb_id":679},"geometry":{"type":"Point","coordinates":[-122.406184,37.799039]}},{"type":"Feature","properties":{"date_filed":"2003-11-06T00:00:00Z","landlord_tenant":"Landlord","ground":"Intent to Withdraw","petition_number":"L031392","landlord_name":"Siu Ngaw Yuen","address":"31 - 35 Bannam Place","city":"San Francisco","state":"CA","zip":"94133","created_at":"2013-07-14T19:19:01Z","updated_at":"2013-07-14T19:27:23Z","cartodb_georef_status":true,"cartodb_id":705},"geometry":{"type":"Point","coordinates":[-122.407764,37.799943]}},{"type":"Feature","properties":{"date_filed":"1999-01-13T00:00:00Z","landlord_tenant":"Landlord","ground":"Intent to Withdraw","petition_number":"L990128","landlord_name":"","address":"362-366 Sanchez Street","city":"San Francisco","state":"CA","zip":"94114","created_at":"2013-07-14T19:19:01Z","updated_at":"2013-07-14T19:28:40Z","cartodb_georef_status":true,"cartodb_id":815},"geometry":{"type":"Point","coordinates":[-122.430776,37.763317]}},{"type":"Feature","properties":{"date_filed":"1999-12-30T00:00:00Z","landlord_tenant":"Landlord","ground":"Intent to Withdraw","petition_number":"L992697","landlord_name":"William L Rothschild","address":"1990 8th Avenue","city":"San Francisco","state":"CA","zip":"94116","created_at":"2013-07-14T19:19:01Z","updated_at":"2013-07-14T19:24:26Z","cartodb_georef_status":true,"cartodb_id":414},"geometry":{"type":"Point","coordinates":[-122.4641,37.75125]}},{"type":"Feature","properties":{"date_filed":"2002-08-01T00:00:00Z","landlord_tenant":"Landlord","ground":"Intent to Withdraw","petition_number":"L021390","landlord_name":"Bethia Jo Johnson","address":"426 31st Avenue","city":"San Francisco","state":"CA","zip":"94121","created_at":"2013-07-14T19:19:01Z","updated_at":"2013-07-14T19:29:47Z","cartodb_georef_status":true,"cartodb_id":910},"geometry":{"type":"Point","coordinates":[-122.49109,37.78117]}},{"type":"Feature","properties":{"date_filed":"2000-06-30T00:00:00Z","landlord_tenant":"Landlord","ground":"Intent to Withdraw","petition_number":"L2K1371","landlord_name":"David P & Jeanne V  Himy","address":"1619-1621 Clement Street","city":"San Francisco","state":"CA","zip":"94121","created_at":"2013-07-14T19:19:01Z","updated_at":"2013-07-14T19:23:17Z","cartodb_georef_status":true,"cartodb_id":299},"geometry":{"type":"Point","coordinates":[-122.476516,37.782382]}},{"type":"Feature","properties":{"date_filed":"1999-01-21T00:00:00Z","landlord_tenant":"Landlord","ground":"Intent to Withdraw","petition_number":"L990126","landlord_name":"","address":"217-219 Carl Street","city":"San Francisco","state":"CA","zip":"94117","created_at":"2013-07-14T19:19:01Z","updated_at":"2013-07-14T19:20:09Z","cartodb_georef_status":true,"cartodb_id":471},"geometry":{"type":"Point","coordinates":[-122.453031,37.765388]}},{"type":"Feature","properties":{"date_filed":"2005-07-12T00:00:00Z","landlord_tenant":"Landlord","ground":"Intent to Withdraw","petition_number":"L050919","landlord_name":"Douglas J. Montgomery\nHerbert  Wei\nShwu-Ling  Wei","address":" 10 - 12 Lucky Street","city":"San Francisco","state":"CA","zip":"94110","created_at":"2013-07-14T19:19:01Z","updated_at":"2013-07-14T19:20:11Z","cartodb_georef_status":true,"cartodb_id":1},"geometry":{"type":"Point","coordinates":[-122.420163,37.762588]}},{"type":"Feature","properties":{"date_filed":"2006-12-05T00:00:00Z","landlord_tenant":"Landlord","ground":"Intent to Withdraw","petition_number":"L061905","landlord_name":"Bob  Rickard","address":"10 - 12 Deming Street","city":"San Francisco","state":"CA","zip":"94114","created_at":"2013-07-14T19:19:01Z","updated_at":"2013-07-14T19:20:12Z","cartodb_georef_status":true,"cartodb_id":3},"geometry":{"type":"Point","coordinates":[-122.44507,37.760486]}},{"type":"Feature","properties":{"date_filed":"2006-12-07T00:00:00Z","landlord_tenant":"Landlord","ground":"Intent to Withdraw","petition_number":"L062084","landlord_name":"Bob  Rickard","address":"10 - 12 Deming Street","city":"San Francisco","state":"CA","zip":"94114","created_at":"2013-07-14T19:19:01Z","updated_at":"2013-07-14T19:20:13Z","cartodb_georef_status":true,"cartodb_id":4},"geometry":{"type":"Point","coordinates":[-122.44507,37.760486]}},{"type":"Feature","properties":{"date_filed":"2008-10-15T00:00:00Z","landlord_tenant":"Landlord","ground":"Intent to Withdraw","petition_number":"L081617","landlord_name":"Carmine  Jensen\nRonald  Meyer","address":"101 - 103 Downey Street","city":"San Francisco","state":"CA","zip":"94117","created_at":"2013-07-14T19:19:01Z","updated_at":"2013-07-14T19:20:14Z","cartodb_georef_status":true,"cartodb_id":5},"geometry":{"type":"Point","coordinates":[-122.44717,37.767057]}},{"type":"Feature","properties":{"date_filed":"2011-10-05T00:00:00Z","landlord_tenant":"Landlord","ground":"Intent to Withdraw","petition_number":"L111289","landlord_name":"SFDD Investments, LLC  ","address":"101 Peabody Street","city":"San Francisco","state":"CA","zip":"94134","created_at":"2013-07-14T19:19:01Z","updated_at":"2013-07-14T19:20:15Z","cartodb_georef_status":true,"cartodb_id":7},"geometry":{"type":"Point","coordinates":[-122.407037,37.711193]}},{"type":"Feature","properties":{"date_filed":"2002-03-21T00:00:00Z","landlord_tenant":"Landlord","ground":"Intent to Withdraw","petition_number":"L020547","landlord_name":"Leonard  Wohadlo\nMargot  Wohadlo","address":"1013-1015 Vallejo Street","city":"San Francisco","state":"CA","zip":"94133","created_at":"2013-07-14T19:19:01Z","updated_at":"2013-07-14T19:20:15Z","cartodb_georef_status":true,"cartodb_id":8},"geometry":{"type":"Point","coordinates":[-122.414439,37.797861]}},{"type":"Feature","properties":{"date_filed":"2005-02-18T00:00:00Z","landlord_tenant":"Landlord","ground":"Intent to Withdraw","petition_number":"L050245","landlord_name":"Paul  Chan","address":"1019 - 1023 Lincoln Way","city":"San Francisco","state":"CA","zip":"94110","created_at":"2013-07-14T19:19:01Z","updated_at":"2013-07-14T19:20:16Z","cartodb_georef_status":true,"cartodb_id":9},"geometry":{"type":"Point","coordinates":[-122.46878,37.765817]}},{"type":"Feature","properties":{"date_filed":"1998-10-15T00:00:00Z","landlord_tenant":"Landlord","ground":"Intent to Withdraw","petition_number":"W001-17X","landlord_name":"Ronald  Cheng\nEdgar D Nolasco","address":"1024 Irving Street","city":"San Francisco","state":"CA","zip":"94122","created_at":"2013-07-14T19:19:01Z","updated_at":"2013-07-14T19:20:16Z","cartodb_georef_status":true,"cartodb_id":10},"geometry":{"type":"Point","coordinates":[-122.468743,37.763947]}},{"type":"Feature","properties":{"date_filed":"2004-05-20T00:00:00Z","landlord_tenant":"Landlord","ground":"Intent to Withdraw","petition_number":"L040641","landlord_name":"Angelina  DeAntonis\nDavid  Delp\nMarta  Fuentealba\nOliver  Raisner\nMarilena  Ruscica\nPeter  Wolfenden","address":"1025 - 1029 Treat Avenue","city":"San Francisco","state":"CA","zip":"94110","created_at":"2013-07-14T19:19:01Z","updated_at":"2013-07-14T19:20:17Z","cartodb_georef_status":true,"cartodb_id":11},"geometry":{"type":"Point","coordinates":[-122.413087,37.753763]}},{"type":"Feature","properties":{"date_filed":"1999-09-21T00:00:00Z","landlord_tenant":"Landlord","ground":"Intent to Withdraw","petition_number":"L991893","landlord_name":"Isa J Muhawieh\nMigdalia  Muhawieh","address":"103-109 Lexington Street","city":"San Francisco","state":"CA","zip":"94110","created_at":"2013-07-14T19:19:01Z","updated_at":"2013-07-14T19:20:18Z","cartodb_georef_status":true,"cartodb_id":12},"geometry":{"type":"Point","coordinates":[-122.420775,37.761696]}},{"type":"Feature","properties":{"date_filed":"2006-06-01T00:00:00Z","landlord_tenant":"Landlord","ground":"Intent to Withdraw","petition_number":"L060932","landlord_name":"Chin Jung Chu\nKuo Fong Chu","address":"1033 - 1037 Irving Street","city":"San Francisco","state":"CA","zip":"94122","created_at":"2013-07-14T19:19:01Z","updated_at":"2013-07-14T19:20:20Z","cartodb_georef_status":true,"cartodb_id":14},"geometry":{"type":"Point","coordinates":[-122.468834,37.763943]}},{"type":"Feature","properties":{"date_filed":"2005-05-03T00:00:00Z","landlord_tenant":"Landlord","ground":"Intent to Withdraw","petition_number":"L050528","landlord_name":"Fred A. Formas\nJason M. Gordon\nKaryn M. Gordon","address":"1033 - 1037 York Street","city":"San Francisco","state":"CA","zip":"94110","created_at":"2013-07-14T19:19:01Z","updated_at":"2013-07-14T19:20:20Z","cartodb_georef_status":true,"cartodb_id":15},"geometry":{"type":"Point","coordinates":[-122.42009,37.76179]}},{"type":"Feature","properties":{"date_filed":"2004-08-17T00:00:00Z","landlord_tenant":"Landlord","ground":"Intent to Withdraw","petition_number":"L041044","landlord_name":"Lidia T. Woytak\nLillian W. Woytak","address":"1041 Washington Street","city":"San Francisco","state":"CA","zip":"94108","created_at":"2013-07-14T19:19:01Z","updated_at":"2013-07-14T19:20:22Z","cartodb_georef_status":true,"cartodb_id":17},"geometry":{"type":"Point","coordinates":[-122.410414,37.794666]}},{"type":"Feature","properties":{"date_filed":"1999-12-15T00:00:00Z","landlord_tenant":"Landlord","ground":"Intent to Withdraw","petition_number":"L992543","landlord_name":"Richard  Leger\nKen  Tipton","address":"1045-1047 Shotwell Street","city":"San Francisco","state":"CA","zip":"94110","created_at":"2013-07-14T19:19:01Z","updated_at":"2013-07-14T19:20:22Z","cartodb_georef_status":true,"cartodb_id":18},"geometry":{"type":"Point","coordinates":[-122.415103,37.751721]}},{"type":"Feature","properties":{"date_filed":"2000-03-31T00:00:00Z","landlord_tenant":"Landlord","ground":"Intent to Withdraw","petition_number":"L2K0691","landlord_name":"Diane K Lusich\nPeter L Lusich","address":"105 Foote Avenue","city":"San Francisco","state":"CA","zip":"94112","created_at":"2013-07-14T19:19:01Z","updated_at":"2013-07-14T19:20:23Z","cartodb_georef_status":true,"cartodb_id":19},"geometry":{"type":"Point","coordinates":[-122.445554,37.713252]}},{"type":"Feature","properties":{"date_filed":"2008-01-23T00:00:00Z","landlord_tenant":"Landlord","ground":"Intent to Withdraw","petition_number":"L080076","landlord_name":"Jessica  Congdon\nEric  Holland\nJeremy  Holland","address":"1062 - 1066 Florida Street","city":"San Francisco","state":"CA","zip":"94110","created_at":"2013-07-14T19:19:01Z","updated_at":"2013-07-14T19:20:25Z","cartodb_georef_status":true,"cartodb_id":21},"geometry":{"type":"Point","coordinates":[-122.42009,37.76179]}},{"type":"Feature","properties":{"date_filed":"2003-05-14T00:00:00Z","landlord_tenant":"Landlord","ground":"Intent to Withdraw","petition_number":"L030665","landlord_name":"Cecilia W. To","address":"1064 - 1066 Shotwell Street","city":"San Francisco","state":"CA","zip":"94110","created_at":"2013-07-14T19:19:01Z","updated_at":"2013-07-14T19:20:25Z","cartodb_georef_status":true,"cartodb_id":22},"geometry":{"type":"Point","coordinates":[-122.415069,37.751398]}},{"type":"Feature","properties":{"date_filed":"1999-12-08T00:00:00Z","landlord_tenant":"Landlord","ground":"Intent to Withdraw","petition_number":"L992499","landlord_name":"Joyce  Landon","address":"1066 Treat Avenue","city":"San Francisco","state":"CA","zip":"94110","created_at":"2013-07-14T19:19:01Z","updated_at":"2013-07-14T19:20:26Z","cartodb_georef_status":true,"cartodb_id":23},"geometry":{"type":"Point","coordinates":[-122.413033,37.753094]}},{"type":"Feature","properties":{"date_filed":"2013-01-31T00:00:00Z","landlord_tenant":"Landlord","ground":"Intent to Withdraw","petition_number":"L130141","landlord_name":"1070 Post Street, LLC  ","address":"1070 Post Street","city":"San Francisco","state":"CA","zip":"94109","created_at":"2013-07-14T19:19:01Z","updated_at":"2013-07-14T19:20:27Z","cartodb_georef_status":true,"cartodb_id":24},"geometry":{"type":"Point","coordinates":[-122.419428,37.786891]}},{"type":"Feature","properties":{"date_filed":"2008-07-18T00:00:00Z","landlord_tenant":"Landlord","ground":"Intent to Withdraw","petition_number":"L081117","landlord_name":"Donald T. David\nMario P. Sarmento","address":"1076 Hampshire Street","city":"San Francisco","state":"CA","zip":"94110","created_at":"2013-07-14T19:19:01Z","updated_at":"2013-07-14T19:20:28Z","cartodb_georef_status":true,"cartodb_id":26},"geometry":{"type":"Point","coordinates":[-122.407509,37.754882]}},{"type":"Feature","properties":{"date_filed":"1999-12-22T00:00:00Z","landlord_tenant":"Landlord","ground":"Intent to Withdraw","petition_number":"L992646","landlord_name":"James C Johnson","address":"1081-1085 Kansas Street","city":"San Francisco","state":"CA","zip":"94107","created_at":"2013-07-14T19:19:01Z","updated_at":"2013-07-14T19:20:30Z","cartodb_georef_status":true,"cartodb_id":28},"geometry":{"type":"Point","coordinates":[-122.402673,37.756037]}},{"type":"Feature","properties":{"date_filed":"2003-09-04T00:00:00Z","landlord_tenant":"Landlord","ground":"Intent to Withdraw","petition_number":"L031140","landlord_name":"Chetcuti & Associates, Inc.  ","address":"1088 - 1090 Capp Street","city":"San Francisco","state":"CA","zip":"94110","created_at":"2013-07-14T19:19:01Z","updated_at":"2013-07-14T19:20:31Z","cartodb_georef_status":true,"cartodb_id":29},"geometry":{"type":"Point","coordinates":[-122.417065,37.749281]}},{"type":"Feature","properties":{"date_filed":"2001-02-21T00:00:00Z","landlord_tenant":"Landlord","ground":"Intent to Withdraw","petition_number":"L010325","landlord_name":"Elba E. Borgen\nMichael A. Gallin","address":"109 Germania Street","city":"San Francisco","state":"CA","zip":"94117","created_at":"2013-07-14T19:19:01Z","updated_at":"2013-07-14T19:20:31Z","cartodb_georef_status":true,"cartodb_id":30},"geometry":{"type":"Point","coordinates":[-122.43066,37.77052]}},{"type":"Feature","properties":{"date_filed":"2006-09-01T00:00:00Z","landlord_tenant":"Landlord","ground":"Intent to Withdraw","petition_number":"L061349","landlord_name":"Frank  Brown\nAlvin H. Cardona\nGalinda J. Cardona","address":"1094-1096 Union Street","city":"San Francisco","state":"CA","zip":"94133","created_at":"2013-07-14T19:19:01Z","updated_at":"2013-07-14T19:20:32Z","cartodb_georef_status":true,"cartodb_id":31},"geometry":{"type":"Point","coordinates":[-122.417331,37.79942]}},{"type":"Feature","properties":{"date_filed":"1999-11-29T00:00:00Z","landlord_tenant":"Landlord","ground":"Intent to Withdraw","petition_number":"L992464","landlord_name":"406-10-12 Realty  Corporation","address":"1100-1112 Montgomery Street","city":"San Francisco","state":"CA","zip":"94133","created_at":"2013-07-14T19:19:01Z","updated_at":"2013-07-14T19:20:33Z","cartodb_georef_status":true,"cartodb_id":33},"geometry":{"type":"Point","coordinates":[-122.404032,37.799169]}},{"type":"Feature","properties":{"date_filed":"1999-12-27T00:00:00Z","landlord_tenant":"Landlord","ground":"Intent to Withdraw","petition_number":"L992652","landlord_name":"Russell  Barnes","address":"1103-1105 Alabama Street","city":"San Francisco","state":"CA","zip":"94110","created_at":"2013-07-14T19:19:01Z","updated_at":"2013-07-14T19:20:34Z","cartodb_georef_status":true,"cartodb_id":34},"geometry":{"type":"Point","coordinates":[-122.411085,37.754226]}},{"type":"Feature","properties":{"date_filed":"2007-07-17T00:00:00Z","landlord_tenant":"Landlord","ground":"Intent to Withdraw","petition_number":"L071047","landlord_name":"Munson Holdings LLC  ","address":"111 - 117 Beaver Street","city":"San Francisco","state":"CA","zip":"94114","created_at":"2013-07-14T19:19:01Z","updated_at":"2013-07-14T19:20:36Z","cartodb_georef_status":true,"cartodb_id":36},"geometry":{"type":"Point","coordinates":[-122.435666,37.764982]}},{"type":"Feature","properties":{"date_filed":"2001-08-24T00:00:00Z","landlord_tenant":"Landlord","ground":"Intent to Withdraw","petition_number":"L011504","landlord_name":"Mar Living Trust  \nThe Lim Family 1995 Trust  ","address":"1111 Kearny Street","city":"San Francisco","state":"CA","zip":"94133","created_at":"2013-07-14T19:19:01Z","updated_at":"2013-07-14T19:20:36Z","cartodb_georef_status":true,"cartodb_id":37},"geometry":{"type":"Point","coordinates":[-122.4055,37.798112]}},{"type":"Feature","properties":{"date_filed":"2003-03-05T00:00:00Z","landlord_tenant":"Landlord","ground":"Intent to Withdraw","petition_number":"L030498","landlord_name":"Mar Living Trust  \nThe Lim Family 1995 Trust  ","address":"1111 Kearny Street","city":"San Francisco","state":"CA","zip":"94133","created_at":"2013-07-14T19:19:01Z","updated_at":"2013-07-14T19:20:37Z","cartodb_georef_status":true,"cartodb_id":38},"geometry":{"type":"Point","coordinates":[-122.4055,37.798112]}},{"type":"Feature","properties":{"date_filed":"1999-02-01T00:00:00Z","landlord_tenant":"Landlord","ground":"Intent to Withdraw","petition_number":"L990196","landlord_name":"Hugo  Villavicencio","address":"3170-3172 25th Street","city":"San Francisco","state":"CA","zip":"94110","created_at":"2013-07-14T19:19:01Z","updated_at":"2013-07-14T19:27:32Z","cartodb_georef_status":true,"cartodb_id":719},"geometry":{"type":"Point","coordinates":[-122.413302,37.750954]}},{"type":"Feature","properties":{"date_filed":"1998-08-27T00:00:00Z","landlord_tenant":"Landlord","ground":"Intent to Withdraw","petition_number":"U001-07X","landlord_name":"Dok Yip  Jue\nFung Ho Lee","address":"1119-1121 Sanchez Street","city":"San Francisco","state":"CA","zip":"94114","created_at":"2013-07-14T19:19:01Z","updated_at":"2013-07-14T19:20:39Z","cartodb_georef_status":true,"cartodb_id":42},"geometry":{"type":"Point","coordinates":[-122.429607,37.751255]}},{"type":"Feature","properties":{"date_filed":"1999-10-29T00:00:00Z","landlord_tenant":"Landlord","ground":"Intent to Withdraw","petition_number":"L992193","landlord_name":"Fung  Ho Lee\nDok  Yip Jue","address":"1119-1121 Sanchez Street","city":"San Francisco","state":"CA","zip":"94114","created_at":"2013-07-14T19:19:01Z","updated_at":"2013-07-14T19:20:40Z","cartodb_georef_status":true,"cartodb_id":43},"geometry":{"type":"Point","coordinates":[-122.429607,37.751255]}},{"type":"Feature","properties":{"date_filed":"2005-06-02T00:00:00Z","landlord_tenant":"Landlord","ground":"Intent to Withdraw","petition_number":"L050680","landlord_name":"Arguello Properties, Inc.  ","address":"112 Arguello Boulevard","city":"San Francisco","state":"CA","zip":"94118","created_at":"2013-07-14T19:19:01Z","updated_at":"2013-07-14T19:20:41Z","cartodb_georef_status":true,"cartodb_id":44},"geometry":{"type":"Point","coordinates":[-122.459375,37.78815]}},{"type":"Feature","properties":{"date_filed":"1999-10-12T00:00:00Z","landlord_tenant":"Landlord","ground":"Intent to Withdraw","petition_number":"L992050","landlord_name":"Linda  Bellatorre\nStephen  Magnani","address":"112-114 Mallorca Way","city":"San Francisco","state":"CA","zip":"94123","created_at":"2013-07-14T19:19:01Z","updated_at":"2013-07-14T19:20:42Z","cartodb_georef_status":true,"cartodb_id":46},"geometry":{"type":"Point","coordinates":[-122.437515,37.801725]}},{"type":"Feature","properties":{"date_filed":"2001-03-05T00:00:00Z","landlord_tenant":"Landlord","ground":"Intent to Withdraw","petition_number":"L010434","landlord_name":"Frank K.F. Chan\nAlexis  Wong","address":"1120 - 1130 Kearny Street","city":"San Francisco","state":"CA","zip":"94133","created_at":"2013-07-14T19:19:01Z","updated_at":"2013-07-14T19:20:42Z","cartodb_georef_status":true,"cartodb_id":47},"geometry":{"type":"Point","coordinates":[-122.40551,37.798195]}},{"type":"Feature","properties":{"date_filed":"2008-12-03T00:00:00Z","landlord_tenant":"Landlord","ground":"Intent to Withdraw","petition_number":"L081869","landlord_name":"The Almonds Family Living Trust  (James L. Smith, Trustee)","address":"1122 Page Street","city":"San Francisco","state":"CA","zip":"94117","created_at":"2013-07-14T19:19:01Z","updated_at":"2013-07-14T19:20:44Z","cartodb_georef_status":true,"cartodb_id":49},"geometry":{"type":"Point","coordinates":[-122.439292,37.771948]}},{"type":"Feature","properties":{"date_filed":"2003-01-30T00:00:00Z","landlord_tenant":"Landlord","ground":"Intent to Withdraw","petition_number":"L030326","landlord_name":"Daniel  Siker\nLinda C. Siker","address":"1123 Hampshire Street","city":"San Francisco","state":"CA","zip":"94110","created_at":"2013-07-14T19:19:01Z","updated_at":"2013-07-14T19:20:44Z","cartodb_georef_status":true,"cartodb_id":50},"geometry":{"type":"Point","coordinates":[-122.407445,37.754149]}},{"type":"Feature","properties":{"date_filed":"2007-04-04T00:00:00Z","landlord_tenant":"Landlord","ground":"Intent to Withdraw","petition_number":"L070556","landlord_name":"Suzanne Renee Dumont\nWilliam Craik Hellendale","address":"1124 - 1126 Filbert Street","city":"San Francisco","state":"CA","zip":"94109","created_at":"2013-07-14T19:19:01Z","updated_at":"2013-07-14T19:20:45Z","cartodb_georef_status":true,"cartodb_id":52},"geometry":{"type":"Point","coordinates":[-122.423663,37.803369]}},{"type":"Feature","properties":{"date_filed":"2012-09-18T00:00:00Z","landlord_tenant":"Landlord","ground":"Intent to Withdraw","petition_number":"L121566","landlord_name":"David William Evans","address":"1132 Green Street","city":"San Francisco","state":"CA","zip":"94109","created_at":"2013-07-14T19:19:01Z","updated_at":"2013-07-14T19:20:46Z","cartodb_georef_status":true,"cartodb_id":53},"geometry":{"type":"Point","coordinates":[-122.417839,37.798399]}},{"type":"Feature","properties":{"date_filed":"2012-12-12T00:00:00Z","landlord_tenant":"Landlord","ground":"Intent to Withdraw","petition_number":"L121971","landlord_name":"David William Evans","address":"1132 Green Street","city":"San Francisco","state":"CA","zip":"94109","created_at":"2013-07-14T19:19:01Z","updated_at":"2013-07-14T19:20:47Z","cartodb_georef_status":true,"cartodb_id":54},"geometry":{"type":"Point","coordinates":[-122.417839,37.798399]}},{"type":"Feature","properties":{"date_filed":"2008-02-19T00:00:00Z","landlord_tenant":"Landlord","ground":"Intent to Withdraw","petition_number":"L080236","landlord_name":"Richard J. Dwyer","address":"1143 - 1145 Mariposa Street","city":"San Francisco","state":"CA","zip":"94107","created_at":"2013-07-14T19:19:01Z","updated_at":"2013-07-14T19:20:48Z","cartodb_georef_status":true,"cartodb_id":55},"geometry":{"type":"Point","coordinates":[-122.395163,37.763954]}},{"type":"Feature","properties":{"date_filed":"2004-10-01T00:00:00Z","landlord_tenant":"Landlord","ground":"Intent to Withdraw","petition_number":"L041210","landlord_name":"Mary  Minor Huck","address":"1148 - 1150 Treat Avenue","city":"San Francisco","state":"CA","zip":"94110","created_at":"2013-07-14T19:19:01Z","updated_at":"2013-07-14T19:20:49Z","cartodb_georef_status":true,"cartodb_id":57},"geometry":{"type":"Point","coordinates":[-122.425822,37.737118]}},{"type":"Feature","properties":{"date_filed":"2008-01-02T00:00:00Z","landlord_tenant":"Landlord","ground":"Intent to Withdraw","petition_number":"L080032","landlord_name":"Lin Lin Chow\nSylvia Seeya Chow","address":"115 - 119 Guerrero Street","city":"San Francisco","state":"CA","zip":"94103","created_at":"2013-07-14T19:19:01Z","updated_at":"2013-07-14T19:20:50Z","cartodb_georef_status":true,"cartodb_id":58},"geometry":{"type":"Point","coordinates":[-122.424542,37.769331]}},{"type":"Feature","properties":{"date_filed":"1998-10-29T00:00:00Z","landlord_tenant":"Landlord","ground":"Intent to Withdraw","petition_number":"W001-14X","landlord_name":"Barbara F Perez\nHenry E Perez","address":"115 Otsego Avenue","city":"San Francisco","state":"CA","zip":"94112","created_at":"2013-07-14T19:19:01Z","updated_at":"2013-07-14T19:20:51Z","cartodb_georef_status":true,"cartodb_id":60},"geometry":{"type":"Point","coordinates":[-122.439731,37.725782]}},{"type":"Feature","properties":{"date_filed":"2007-06-12T00:00:00Z","landlord_tenant":"Landlord","ground":"Intent to Withdraw","petition_number":"L070900","landlord_name":"Grant  Kwok\nKendric  Kwok\nMichael  Kwong","address":"1150 Hyde Street","city":"San Francisco","state":"CA","zip":"94109","created_at":"2013-07-14T19:19:01Z","updated_at":"2013-07-14T19:20:51Z","cartodb_georef_status":true,"cartodb_id":61},"geometry":{"type":"Point","coordinates":[-122.41739,37.79176]}},{"type":"Feature","properties":{"date_filed":"1999-01-29T00:00:00Z","landlord_tenant":"Landlord","ground":"Intent to Withdraw","petition_number":"L990151","landlord_name":"Sanford E Schnoll","address":"1155 Stanyan Street","city":"San Francisco","state":"CA","zip":"94117","created_at":"2013-07-14T19:19:01Z","updated_at":"2013-07-14T19:20:53Z","cartodb_georef_status":true,"cartodb_id":63},"geometry":{"type":"Point","coordinates":[-122.452281,37.763096]}},{"type":"Feature","properties":{"date_filed":"2005-07-27T00:00:00Z","landlord_tenant":"Landlord","ground":"Intent to Withdraw","petition_number":"L050927","landlord_name":"Rachel  Fudge\nHugh  Hynes\nJames  Ruggiero","address":"116 - 118 Tiffany Avenue","city":"San Francisco","state":"CA","zip":"94110","created_at":"2013-07-14T19:19:01Z","updated_at":"2013-07-14T19:20:53Z","cartodb_georef_status":true,"cartodb_id":64},"geometry":{"type":"Point","coordinates":[-122.421232,37.745143]}},{"type":"Feature","properties":{"date_filed":"2009-12-22T00:00:00Z","landlord_tenant":"Landlord","ground":"Intent to Withdraw","petition_number":"L091762","landlord_name":"Peter A. Giannini Trust; Anita M. Giannini, Trustee","address":"116 - 120 LeRoy Place","city":"San Francisco","state":"CA","zip":"94109","created_at":"2013-07-14T19:19:01Z","updated_at":"2013-07-14T19:20:54Z","cartodb_georef_status":true,"cartodb_id":65},"geometry":{"type":"Point","coordinates":[-122.415145,37.792311]}},{"type":"Feature","properties":{"date_filed":"1998-10-23T00:00:00Z","landlord_tenant":"Landlord","ground":"Intent to Withdraw","petition_number":"W001-12X","landlord_name":"Thomas  Wood","address":"116-118 Lyon Street","city":"San Francisco","state":"CA","zip":"94117","created_at":"2013-07-14T19:19:01Z","updated_at":"2013-07-14T19:20:54Z","cartodb_georef_status":true,"cartodb_id":66},"geometry":{"type":"Point","coordinates":[-122.442203,37.771651]}},{"type":"Feature","properties":{"date_filed":"2004-07-12T00:00:00Z","landlord_tenant":"Landlord","ground":"Intent to Withdraw","petition_number":"L040906","landlord_name":"Amy E. Everitt\nPolly N. Shaw","address":"1160 - 1162 Stanyan Street","city":"San Francisco","state":"CA","zip":"94117","created_at":"2013-07-14T19:19:01Z","updated_at":"2013-07-14T19:20:56Z","cartodb_georef_status":true,"cartodb_id":68},"geometry":{"type":"Point","coordinates":[-122.452293,37.76315]}},{"type":"Feature","properties":{"date_filed":"2003-10-28T00:00:00Z","landlord_tenant":"Landlord","ground":"Intent to Withdraw","petition_number":"L031363","landlord_name":"Edward M. Rebizzo, Successor Trustee","address":"1161 - 1169 Folsom Street","city":"San Francisco","state":"CA","zip":"94103","created_at":"2013-07-14T19:19:01Z","updated_at":"2013-07-14T19:20:56Z","cartodb_georef_status":true,"cartodb_id":69},"geometry":{"type":"Point","coordinates":[-122.409332,37.775572]}},{"type":"Feature","properties":{"date_filed":"2004-11-10T00:00:00Z","landlord_tenant":"Landlord","ground":"Intent to Withdraw","petition_number":"L041343","landlord_name":"Elaine  Mak\nDaniel Y. Wong","address":"118 - 120 21st Avenue","city":"San Francisco","state":"CA","zip":"94121","created_at":"2013-07-14T19:19:01Z","updated_at":"2013-07-14T19:20:57Z","cartodb_georef_status":true,"cartodb_id":70},"geometry":{"type":"Point","coordinates":[-122.48083,37.785533]}},{"type":"Feature","properties":{"date_filed":"2004-09-24T00:00:00Z","landlord_tenant":"Landlord","ground":"Intent to Withdraw","petition_number":"L041182","landlord_name":"Kelly Siukai Wu\nKoon Tak Wu\nZe Qiang Xiao\nAi Ci Zhang","address":"1206 - 1212 8th Avenue","city":"San Francisco","state":"CA","zip":"94122","created_at":"2013-07-14T19:19:01Z","updated_at":"2013-07-14T19:20:58Z","cartodb_georef_status":true,"cartodb_id":72},"geometry":{"type":"Point","coordinates":[-122.465343,37.765845]}},{"type":"Feature","properties":{"date_filed":"1999-02-24T00:00:00Z","landlord_tenant":"Landlord","ground":"Intent to Withdraw","petition_number":"L990339","landlord_name":"Stephanie  Eldred\nBrain  Shimetz\nBrian  Streiffer","address":"121 Cortland Avenue","city":"San Francisco","state":"CA","zip":"94110","created_at":"2013-07-14T19:19:01Z","updated_at":"2013-07-14T19:20:59Z","cartodb_georef_status":true,"cartodb_id":73},"geometry":{"type":"Point","coordinates":[-122.4204,37.74024]}},{"type":"Feature","properties":{"date_filed":"1999-07-28T00:00:00Z","landlord_tenant":"Landlord","ground":"Intent to Withdraw","petition_number":"L991494","landlord_name":"Katharine  Beckwith","address":"121 Varennes Street","city":"San Francisco","state":"CA","zip":"94133","created_at":"2013-07-14T19:19:01Z","updated_at":"2013-07-14T19:21:00Z","cartodb_georef_status":true,"cartodb_id":74},"geometry":{"type":"Point","coordinates":[-122.406856,37.800937]}},{"type":"Feature","properties":{"date_filed":"2000-09-15T00:00:00Z","landlord_tenant":"Landlord","ground":"Intent to Withdraw","petition_number":"L2K1972","landlord_name":"Wcw Corporation  ","address":"1210 12th Avenue","city":"San Francisco","state":"CA","zip":"94122","created_at":"2013-07-14T19:19:01Z","updated_at":"2013-07-14T19:21:01Z","cartodb_georef_status":true,"cartodb_id":76},"geometry":{"type":"Point","coordinates":[-122.46943,37.76545]}},{"type":"Feature","properties":{"date_filed":"2006-01-11T00:00:00Z","landlord_tenant":"Landlord","ground":"Intent to Withdraw","petition_number":"L060023","landlord_name":"Armine  Mekhdjian\nHaig  Mekhdjian","address":"1211 30th Avenue","city":"San Francisco","state":"CA","zip":"94122","created_at":"2013-07-14T19:19:01Z","updated_at":"2013-07-14T19:21:01Z","cartodb_georef_status":true,"cartodb_id":77},"geometry":{"type":"Point","coordinates":[-122.48915,37.76459]}},{"type":"Feature","properties":{"date_filed":"2004-11-18T00:00:00Z","landlord_tenant":"Landlord","ground":"Intent to Withdraw","petition_number":"L041440","landlord_name":"Gregory J. Wimmer, Trustee of the Gregory J. Wimmer Living Trust, Dated February 18, 2003  ","address":"1215 Jackson Street","city":"San Francisco","state":"CA","zip":"94109","created_at":"2013-07-14T19:19:01Z","updated_at":"2013-07-14T19:21:02Z","cartodb_georef_status":true,"cartodb_id":79},"geometry":{"type":"Point","coordinates":[-122.415078,37.794966]}},{"type":"Feature","properties":{"date_filed":"2000-03-03T00:00:00Z","landlord_tenant":"Landlord","ground":"Intent to Withdraw","petition_number":"L2K0484","landlord_name":"Marianne  Mitten","address":"1217 San Bruno Street","city":"San Francisco","state":"CA","zip":"94110","created_at":"2013-07-14T19:19:01Z","updated_at":"2013-07-14T19:21:03Z","cartodb_georef_status":true,"cartodb_id":80},"geometry":{"type":"Point","coordinates":[-122.02753,38.26043]}},{"type":"Feature","properties":{"date_filed":"2006-01-19T00:00:00Z","landlord_tenant":"Landlord","ground":"Intent to Withdraw","petition_number":"L060111","landlord_name":"The Perez Family Trust  ","address":"1220 - 1222 Church Street","city":"San Francisco","state":"CA","zip":"94114","created_at":"2013-07-14T19:19:01Z","updated_at":"2013-07-14T19:21:05Z","cartodb_georef_status":true,"cartodb_id":82},"geometry":{"type":"Point","coordinates":[-122.427397,37.751322]}},{"type":"Feature","properties":{"date_filed":"2006-10-11T00:00:00Z","landlord_tenant":"Landlord","ground":"Intent to Withdraw","petition_number":"L061529","landlord_name":"The Perez Family Trust  ","address":"1220 - 1222 Church Street","city":"San Francisco","state":"CA","zip":"94114","created_at":"2013-07-14T19:19:01Z","updated_at":"2013-07-14T19:21:05Z","cartodb_georef_status":true,"cartodb_id":83},"geometry":{"type":"Point","coordinates":[-122.427397,37.751322]}},{"type":"Feature","properties":{"date_filed":"2001-11-13T00:00:00Z","landlord_tenant":"Landlord","ground":"Intent to Withdraw","petition_number":"L012135","landlord_name":"Angela  Huang Lee\nJimmy Jun Tang Lee","address":"163 Princeton Street","city":"San Francisco","state":"CA","zip":"94134","created_at":"2013-07-14T19:19:01Z","updated_at":"2013-07-14T19:23:19Z","cartodb_georef_status":true,"cartodb_id":303},"geometry":{"type":"Point","coordinates":[-122.41532,37.72771]}},{"type":"Feature","properties":{"date_filed":"2006-11-16T00:00:00Z","landlord_tenant":"Landlord","ground":"Intent to Withdraw","petition_number":"L061772","landlord_name":"Madelyn C. Cueva\nRicky S. Cueva","address":"1636 - 1638 Great Highway","city":"San Francisco","state":"CA","zip":"94122","created_at":"2013-07-14T19:19:01Z","updated_at":"2013-07-14T19:23:21Z","cartodb_georef_status":true,"cartodb_id":306},"geometry":{"type":"Point","coordinates":[-122.508832,37.755804]}},{"type":"Feature","properties":{"date_filed":"2001-01-09T00:00:00Z","landlord_tenant":"Landlord","ground":"Intent to Withdraw","petition_number":"L010054","landlord_name":"William K. Benton","address":"1223 - 1225 7th Avenue","city":"San Francisco","state":"CA","zip":"94122","created_at":"2013-07-14T19:19:01Z","updated_at":"2013-07-14T19:21:07Z","cartodb_georef_status":true,"cartodb_id":85},"geometry":{"type":"Point","coordinates":[-122.46427,37.76555]}},{"type":"Feature","properties":{"date_filed":"2007-01-10T00:00:00Z","landlord_tenant":"Landlord","ground":"Intent to Withdraw","petition_number":"L070213","landlord_name":"Ronald Henry Kaufman and Barbara Lynn Kaufman, as Trustees, or the Successor Trustees, of the Ronald and Barbara Kaufman Revocable Trust dated September 4, 1991","address":"1226 - 1228 Montgomery Street","city":"San Francisco","state":"CA","zip":"94133","created_at":"2013-07-14T19:19:01Z","updated_at":"2013-07-14T19:21:09Z","cartodb_georef_status":true,"cartodb_id":87},"geometry":{"type":"Point","coordinates":[-122.41671,37.80434]}},{"type":"Feature","properties":{"date_filed":"2003-11-13T00:00:00Z","landlord_tenant":"Landlord","ground":"Intent to Withdraw","petition_number":"L031419","landlord_name":"Rosalia  Whitehead","address":"1227 - 1229 17th Avenue","city":"San Francisco","state":"CA","zip":"94122","created_at":"2013-07-14T19:19:01Z","updated_at":"2013-07-14T19:21:10Z","cartodb_georef_status":true,"cartodb_id":88},"geometry":{"type":"Point","coordinates":[-122.475079,37.765025]}},{"type":"Feature","properties":{"date_filed":"2004-06-10T00:00:00Z","landlord_tenant":"Landlord","ground":"Intent to Withdraw","petition_number":"L040729","landlord_name":"Janette R. Barroca\nFred V. Biagini, Trustee, U.D.T. dated May 20, 1988","address":"123 Marina Boulevard","city":"San Francisco","state":"CA","zip":"94123","created_at":"2013-07-14T19:19:01Z","updated_at":"2013-07-14T19:21:11Z","cartodb_georef_status":true,"cartodb_id":90},"geometry":{"type":"Point","coordinates":[-122.434413,37.805387]}},{"type":"Feature","properties":{"date_filed":"2004-06-21T00:00:00Z","landlord_tenant":"Landlord","ground":"Intent to Withdraw","petition_number":"L040825","landlord_name":"Fred V. Biagini, Trustee, UDT dated May 20, 1988  \nJanette R. Barroca","address":"123 Marina Boulevard","city":"San Francisco","state":"CA","zip":"94123","created_at":"2013-07-14T19:19:01Z","updated_at":"2013-07-14T19:21:12Z","cartodb_georef_status":true,"cartodb_id":91},"geometry":{"type":"Point","coordinates":[-122.434413,37.805387]}},{"type":"Feature","properties":{"date_filed":"2012-05-24T00:00:00Z","landlord_tenant":"Landlord","ground":"Intent to Withdraw","petition_number":"L120925","landlord_name":"Frank  Gamma\nMaureen  Gamma","address":"123 Masonic Avenue","city":"San Francisco","state":"CA","zip":"94118","created_at":"2013-07-14T19:19:01Z","updated_at":"2013-07-14T19:21:13Z","cartodb_georef_status":true,"cartodb_id":92},"geometry":{"type":"Point","coordinates":[-122.447491,37.780797]}},{"type":"Feature","properties":{"date_filed":"2000-04-07T00:00:00Z","landlord_tenant":"Landlord","ground":"Intent to Withdraw","petition_number":"L2K0706","landlord_name":"Lawrence H Shane","address":"1230 Mason Street","city":"San Francisco","state":"CA","zip":"94108","created_at":"2013-07-14T19:19:01Z","updated_at":"2013-07-14T19:21:13Z","cartodb_georef_status":true,"cartodb_id":93},"geometry":{"type":"Point","coordinates":[-122.41128,37.79492]}},{"type":"Feature","properties":{"date_filed":"2000-08-14T00:00:00Z","landlord_tenant":"Landlord","ground":"Intent to Withdraw","petition_number":"L2K1720","landlord_name":"Angela S Deer","address":"1230-1232 Vicente Street","city":"San Francisco","state":"CA","zip":"94116","created_at":"2013-07-14T19:19:01Z","updated_at":"2013-07-14T19:21:14Z","cartodb_georef_status":true,"cartodb_id":94},"geometry":{"type":"Point","coordinates":[-122.480081,37.739104]}},{"type":"Feature","properties":{"date_filed":"2002-05-21T00:00:00Z","landlord_tenant":"Landlord","ground":"Intent to Withdraw","petition_number":"L020853","landlord_name":"Salvatore  Salvato","address":"1231-1235 Noe Street","city":"San Francisco","state":"CA","zip":"94114","created_at":"2013-07-14T19:19:01Z","updated_at":"2013-07-14T19:21:15Z","cartodb_georef_status":true,"cartodb_id":96},"geometry":{"type":"Point","coordinates":[-122.431666,37.74933]}},{"type":"Feature","properties":{"date_filed":"2004-06-28T00:00:00Z","landlord_tenant":"Landlord","ground":"Intent to Withdraw","petition_number":"L040838","landlord_name":"Jeff  Berg\nFriea  Crocker\nBakht  Khan\nAlmaz  Sullivan","address":"1236 - 1240 Mason Street","city":"San Francisco","state":"CA","zip":"94108","created_at":"2013-07-14T19:19:01Z","updated_at":"2013-07-14T19:21:16Z","cartodb_georef_status":true,"cartodb_id":98},"geometry":{"type":"Point","coordinates":[-122.411438,37.79489]}},{"type":"Feature","properties":{"date_filed":"2007-06-07T00:00:00Z","landlord_tenant":"Landlord","ground":"Intent to Withdraw","petition_number":"L070850","landlord_name":"David  Schwartz\nLaura  Schwartz","address":"124 - 126 Chenery Street","city":"San Francisco","state":"CA","zip":"94131","created_at":"2013-07-14T19:19:01Z","updated_at":"2013-07-14T19:21:17Z","cartodb_georef_status":true,"cartodb_id":99},"geometry":{"type":"Point","coordinates":[-122.425652,37.739456]}},{"type":"Feature","properties":{"date_filed":"1999-12-28T00:00:00Z","landlord_tenant":"Landlord","ground":"Intent to Withdraw","petition_number":"L992675","landlord_name":"Paul & Jane  Kwan","address":"1243-1245 19th Avenue","city":"San Francisco","state":"CA","zip":"94122","created_at":"2013-07-14T19:19:01Z","updated_at":"2013-07-14T19:21:18Z","cartodb_georef_status":true,"cartodb_id":100},"geometry":{"type":"Point","coordinates":[-122.477271,37.764639]}},{"type":"Feature","properties":{"date_filed":"2006-02-09T00:00:00Z","landlord_tenant":"Landlord","ground":"Intent to Withdraw","petition_number":"L060195","landlord_name":"Washington Street Investments, LLC  \nJerold B. Balzer","address":"1245 Washington Street","city":"San Francisco","state":"CA","zip":"94108","created_at":"2013-07-14T19:19:01Z","updated_at":"2013-07-14T19:21:18Z","cartodb_georef_status":true,"cartodb_id":101},"geometry":{"type":"Point","coordinates":[-122.413762,37.79423]}},{"type":"Feature","properties":{"date_filed":"2008-06-24T00:00:00Z","landlord_tenant":"Landlord","ground":"Intent to Withdraw","petition_number":"L080998","landlord_name":"Andrew  Lee","address":"1246 25th Avenue","city":"San Francisco","state":"CA","zip":"94122","created_at":"2013-07-14T19:19:01Z","updated_at":"2013-07-14T19:21:19Z","cartodb_georef_status":true,"cartodb_id":102},"geometry":{"type":"Point","coordinates":[-122.48346,37.76424]}},{"type":"Feature","properties":{"date_filed":"2008-05-01T00:00:00Z","landlord_tenant":"Landlord","ground":"Intent to Withdraw","petition_number":"L080680","landlord_name":"Top of Nob Hill, LLC, a California limited liability company  ","address":"1250 Sacramento Street","city":"San Francisco","state":"CA","zip":"94102","created_at":"2013-07-14T19:19:01Z","updated_at":"2013-07-14T19:21:20Z","cartodb_georef_status":true,"cartodb_id":104},"geometry":{"type":"Point","coordinates":[-122.413553,37.792443]}},{"type":"Feature","properties":{"date_filed":"2001-10-26T00:00:00Z","landlord_tenant":"Landlord","ground":"Intent to Withdraw","petition_number":"L012018","landlord_name":"Gabriella  Furlan\nGiuseppe Antonio Legname","address":"1252 - 1254 Arguello Boulevard","city":"San Francisco","state":"CA","zip":"94122","created_at":"2013-07-14T19:19:01Z","updated_at":"2013-07-14T19:21:21Z","cartodb_georef_status":true,"cartodb_id":105},"geometry":{"type":"Point","coordinates":[-122.457696,37.765061]}},{"type":"Feature","properties":{"date_filed":"2007-10-09T00:00:00Z","landlord_tenant":"Landlord","ground":"Intent to Withdraw","petition_number":"L071557","landlord_name":"Ngon Sheng Jew 1999 Revocable Trust  ","address":"1253 - 1257 Mason Street","city":"San Francisco","state":"CA","zip":"94108","created_at":"2013-07-14T19:19:01Z","updated_at":"2013-07-14T19:21:22Z","cartodb_georef_status":true,"cartodb_id":107},"geometry":{"type":"Point","coordinates":[-122.411466,37.795033]}},{"type":"Feature","properties":{"date_filed":"2006-11-28T00:00:00Z","landlord_tenant":"Landlord","ground":"Intent to Withdraw","petition_number":"L061801","landlord_name":"Yick O. Wong","address":"1254 - 1256 Leavenworth Street","city":"San Francisco","state":"CA","zip":"94109","created_at":"2013-07-14T19:19:01Z","updated_at":"2013-07-14T19:21:23Z","cartodb_georef_status":true,"cartodb_id":108},"geometry":{"type":"Point","coordinates":[-122.416018,37.792606]}},{"type":"Feature","properties":{"date_filed":"2007-12-14T00:00:00Z","landlord_tenant":"Landlord","ground":"Intent to Withdraw","petition_number":"L071965","landlord_name":"Yick O. Wong","address":"1254 - 1256 Leavenworth Street","city":"San Francisco","state":"CA","zip":"94109","created_at":"2013-07-14T19:19:01Z","updated_at":"2013-07-14T19:21:23Z","cartodb_georef_status":true,"cartodb_id":109},"geometry":{"type":"Point","coordinates":[-122.416018,37.792606]}},{"type":"Feature","properties":{"date_filed":"2000-06-12T00:00:00Z","landlord_tenant":"Landlord","ground":"Intent to Withdraw","petition_number":"L2K1239","landlord_name":"Eun  Chun Choe\nJeong  Hee Shin","address":"1255 43rd Avenue","city":"San Francisco","state":"CA","zip":"94122","created_at":"2013-07-14T19:19:01Z","updated_at":"2013-07-14T19:21:24Z","cartodb_georef_status":true,"cartodb_id":111},"geometry":{"type":"Point","coordinates":[-122.50323,37.76324]}},{"type":"Feature","properties":{"date_filed":"2006-11-16T00:00:00Z","landlord_tenant":"Landlord","ground":"Intent to Withdraw","petition_number":"L061775","landlord_name":"John R. Montgomery, Jr.","address":"1255 Oak Street","city":"San Francisco","state":"CA","zip":"94117","created_at":"2013-07-14T19:19:01Z","updated_at":"2013-07-14T19:21:24Z","cartodb_georef_status":true,"cartodb_id":112},"geometry":{"type":"Point","coordinates":[-122.44001,37.772794]}},{"type":"Feature","properties":{"date_filed":"1999-04-14T00:00:00Z","landlord_tenant":"Landlord","ground":"Intent to Withdraw","petition_number":"L990729","landlord_name":"Aida  Miyar\nCristina L Miyar\nJose  Miyar\nMartha E Miyar\nJohn T Mullan","address":"1258-1260 Noe Street","city":"San Francisco","state":"CA","zip":"94114","created_at":"2013-07-14T19:19:01Z","updated_at":"2013-07-14T19:21:25Z","cartodb_georef_status":true,"cartodb_id":113},"geometry":{"type":"Point","coordinates":[-122.431621,37.748885]}},{"type":"Feature","properties":{"date_filed":"1999-05-07T00:00:00Z","landlord_tenant":"Landlord","ground":"Intent to Withdraw","petition_number":"L990912","landlord_name":"David P Whalen","address":"126-128 Noe Street","city":"San Francisco","state":"CA","zip":"94102","created_at":"2013-07-14T19:19:01Z","updated_at":"2013-07-14T19:21:26Z","cartodb_georef_status":true,"cartodb_id":115},"geometry":{"type":"Point","coordinates":[-122.433362,37.767034]}},{"type":"Feature","properties":{"date_filed":"2008-02-08T00:00:00Z","landlord_tenant":"Landlord","ground":"Intent to Withdraw","petition_number":"L080226","landlord_name":"Joseph K. Nguyen\nHoa Quy Pham","address":"1260 - 1262 Fulton Street","city":"San Francisco","state":"CA","zip":"94117","created_at":"2013-07-14T19:19:01Z","updated_at":"2013-07-14T19:21:27Z","cartodb_georef_status":true,"cartodb_id":116},"geometry":{"type":"Point","coordinates":[-122.43752,37.776941]}},{"type":"Feature","properties":{"date_filed":"2007-05-02T00:00:00Z","landlord_tenant":"Landlord","ground":"Intent to Withdraw","petition_number":"L070779","landlord_name":"Chun Mei Zhang\nPing Jiu Zhang","address":"1260 Funston Avenue","city":"San Francisco","state":"CA","zip":"94122","created_at":"2013-07-14T19:19:01Z","updated_at":"2013-07-14T19:21:28Z","cartodb_georef_status":true,"cartodb_id":117},"geometry":{"type":"Point","coordinates":[-122.470646,37.764579]}},{"type":"Feature","properties":{"date_filed":"2001-04-25T00:00:00Z","landlord_tenant":"Landlord","ground":"Intent to Withdraw","petition_number":"L010856","landlord_name":"Henry  Johnson","address":"1263 Quesada Avenue","city":"San Francisco","state":"CA","zip":"94124","created_at":"2013-07-14T19:19:01Z","updated_at":"2013-07-14T19:21:29Z","cartodb_georef_status":true,"cartodb_id":119},"geometry":{"type":"Point","coordinates":[-122.383296,37.728719]}},{"type":"Feature","properties":{"date_filed":"2002-11-27T00:00:00Z","landlord_tenant":"Landlord","ground":"Intent to Withdraw","petition_number":"L021857","landlord_name":"Henry  Johnson","address":"1263 Quesada Avenue","city":"San Francisco","state":"CA","zip":"94124","created_at":"2013-07-14T19:19:01Z","updated_at":"2013-07-14T19:21:29Z","cartodb_georef_status":true,"cartodb_id":120},"geometry":{"type":"Point","coordinates":[-122.383296,37.728719]}},{"type":"Feature","properties":{"date_filed":"2003-04-18T00:00:00Z","landlord_tenant":"Landlord","ground":"Intent to Withdraw","petition_number":"L030511","landlord_name":"Olivia S.D. Woo\nSteven  Woo","address":"1266 - 1268 20th Avenue","city":"San Francisco","state":"CA","zip":"94122","created_at":"2013-07-14T19:19:01Z","updated_at":"2013-07-14T19:21:31Z","cartodb_georef_status":true,"cartodb_id":122},"geometry":{"type":"Point","coordinates":[-122.478245,37.764087]}},{"type":"Feature","properties":{"date_filed":"1998-11-04T00:00:00Z","landlord_tenant":"Landlord","ground":"Intent to Withdraw","petition_number":"X001-01X","landlord_name":"Annette  Gaudino\nLisa  Roth\nLaura  Thomas","address":"1266-1270 Vermont Street","city":"San Francisco","state":"CA","zip":"94110","created_at":"2013-07-14T19:19:01Z","updated_at":"2013-07-14T19:21:31Z","cartodb_georef_status":true,"cartodb_id":123},"geometry":{"type":"Point","coordinates":[-122.403439,37.753605]}},{"type":"Feature","properties":{"date_filed":"2000-08-22T00:00:00Z","landlord_tenant":"Landlord","ground":"Intent to Withdraw","petition_number":"L2K1786","landlord_name":"Robert N Field","address":"127 - 129 Beaumont Avenue","city":"San Francisco","state":"CA","zip":"94118","created_at":"2013-07-14T19:19:01Z","updated_at":"2013-07-14T19:21:34Z","cartodb_georef_status":true,"cartodb_id":127},"geometry":{"type":"Point","coordinates":[-122.454692,37.779456]}},{"type":"Feature","properties":{"date_filed":"2005-02-15T00:00:00Z","landlord_tenant":"Landlord","ground":"Intent to Withdraw","petition_number":"L050228","landlord_name":"Albert R. Cendana\nGene C. Warren","address":"127 Corbett Avenue","city":"San Francisco","state":"CA","zip":"94114","created_at":"2013-07-14T19:19:01Z","updated_at":"2013-07-14T19:21:34Z","cartodb_georef_status":true,"cartodb_id":128},"geometry":{"type":"Point","coordinates":[-122.440973,37.761679]}},{"type":"Feature","properties":{"date_filed":"1997-10-29T00:00:00Z","landlord_tenant":"Landlord","ground":"Intent to Withdraw","petition_number":"S001-04X","landlord_name":"George  Hauser\nRene E Peinado","address":"1271 Lombard Street","city":"San Francisco","state":"CA","zip":"94109","created_at":"2013-07-14T19:19:01Z","updated_at":"2013-07-14T19:21:35Z","cartodb_georef_status":true,"cartodb_id":129},"geometry":{"type":"Point","coordinates":[-122.422418,37.801609]}},{"type":"Feature","properties":{"date_filed":"2005-07-29T00:00:00Z","landlord_tenant":"Landlord","ground":"Intent to Withdraw","petition_number":"L050928","landlord_name":"Evelyn  Hu\nMarcus  Hu\nPaul K.J. Hu","address":"1278 - 1282 California Street","city":"San Francisco","state":"CA","zip":"94109","created_at":"2013-07-14T19:19:01Z","updated_at":"2013-07-14T19:21:36Z","cartodb_georef_status":true,"cartodb_id":131},"geometry":{"type":"Point","coordinates":[-122.42496,37.8032]}},{"type":"Feature","properties":{"date_filed":"1999-08-16T00:00:00Z","landlord_tenant":"Landlord","ground":"Intent to Withdraw","petition_number":"L991647","landlord_name":"Peter M Smale\nJin Y Wang","address":"128 Villa Terrace","city":"San Francisco","state":"CA","zip":"94114","created_at":"2013-07-14T19:19:01Z","updated_at":"2013-07-14T19:21:36Z","cartodb_georef_status":true,"cartodb_id":132},"geometry":{"type":"Point","coordinates":[-122.446484,37.758149]}},{"type":"Feature","properties":{"date_filed":"2013-02-14T00:00:00Z","landlord_tenant":"Landlord","ground":"Intent to Withdraw","petition_number":"L130254","landlord_name":"Marina P. Ancheta, as Trustee of the Marina P. Ancheta Living Trust, UDT, March 6, 2006\nMichael P. Sweeney, as Trustee of the Michael P. Sweeney Living Trust, UDT, December 29, 2005","address":"1282 Hampshire Street","city":"San Francisco","state":"CA","zip":"94110","created_at":"2013-07-14T19:19:01Z","updated_at":"2013-07-14T19:21:38Z","cartodb_georef_status":true,"cartodb_id":134},"geometry":{"type":"Point","coordinates":[-122.407164,37.751599]}},{"type":"Feature","properties":{"date_filed":"2006-12-19T00:00:00Z","landlord_tenant":"Landlord","ground":"Intent to Withdraw","petition_number":"L061925","landlord_name":"Gregory John McDowell, Trustee of the Gregory John McDowell Living Trust dated January 18, 2002","address":"1286 - 1298 Treat Avenue","city":"San Francisco","state":"CA","zip":"94110","created_at":"2013-07-14T19:19:01Z","updated_at":"2013-07-14T19:21:38Z","cartodb_georef_status":true,"cartodb_id":135},"geometry":{"type":"Point","coordinates":[-122.404375,37.753292]}},{"type":"Feature","properties":{"date_filed":"2005-09-06T00:00:00Z","landlord_tenant":"Landlord","ground":"Intent to Withdraw","petition_number":"L051076","landlord_name":"Bryan  Suggitt","address":"129 - 133 Noe Street","city":"San Francisco","state":"CA","zip":"94114","created_at":"2013-07-14T19:19:01Z","updated_at":"2013-07-14T19:21:39Z","cartodb_georef_status":true,"cartodb_id":136},"geometry":{"type":"Point","coordinates":[-122.433359,37.766997]}},{"type":"Feature","properties":{"date_filed":"1999-12-13T00:00:00Z","landlord_tenant":"Landlord","ground":"Intent to Withdraw","petition_number":"L992512","landlord_name":"Freeman Ming  Wong\nLai Mui  Wong\nWalden Wah  Wong\nYung Wai  Wong","address":"1290 41st Avenue","city":"San Francisco","state":"CA","zip":"94122","created_at":"2013-07-14T19:19:01Z","updated_at":"2013-07-14T19:21:40Z","cartodb_georef_status":true,"cartodb_id":138},"geometry":{"type":"Point","coordinates":[-122.50042,37.76274]}},{"type":"Feature","properties":{"date_filed":"2001-01-17T00:00:00Z","landlord_tenant":"Landlord","ground":"Intent to Withdraw","petition_number":"L010083","landlord_name":"John E. Wai","address":"13 - 19 Abbey Street","city":"San Francisco","state":"CA","zip":"94114","created_at":"2013-07-14T19:19:01Z","updated_at":"2013-07-14T19:21:40Z","cartodb_georef_status":true,"cartodb_id":139},"geometry":{"type":"Point","coordinates":[-122.42721,37.763637]}},{"type":"Feature","properties":{"date_filed":"2006-03-23T00:00:00Z","landlord_tenant":"Landlord","ground":"Intent to Withdraw","petition_number":"L060497","landlord_name":"Natasha  Miley\nDennis P. Ring, Trustee of the Rokisky-Ring 2005 Trust dated June 27, 2005\nSusan  Rokisky-Ring,  Trustee of the Rokisky-Ring 2005 Trust dated June 27, 2005","address":"130 - 132 Lexington Street","city":"San Francisco","state":"CA","zip":"94110","created_at":"2013-07-14T19:19:01Z","updated_at":"2013-07-14T19:21:42Z","cartodb_georef_status":true,"cartodb_id":141},"geometry":{"type":"Point","coordinates":[-122.420056,37.761293]}},{"type":"Feature","properties":{"date_filed":"1998-03-30T00:00:00Z","landlord_tenant":"Landlord","ground":"Intent to Withdraw","petition_number":"S001-12X","landlord_name":"Fabienne  Blanc\nJohn W Quarterman","address":"1300 Noe Street","city":"San Francisco","state":"CA","zip":"94131","created_at":"2013-07-14T19:19:01Z","updated_at":"2013-07-14T19:21:42Z","cartodb_georef_status":true,"cartodb_id":142},"geometry":{"type":"Point","coordinates":[-122.43174,37.74803]}},{"type":"Feature","properties":{"date_filed":"1998-08-25T00:00:00Z","landlord_tenant":"Landlord","ground":"Intent to Withdraw","petition_number":"U001-04X","landlord_name":"Fabienne  Blanc\nJohn W Quarterman","address":"1300-1302 Noe Street","city":"San Francisco","state":"CA","zip":"94105","created_at":"2013-07-14T19:19:01Z","updated_at":"2013-07-14T19:21:43Z","cartodb_georef_status":true,"cartodb_id":143},"geometry":{"type":"Point","coordinates":[-122.431539,37.748242]}},{"type":"Feature","properties":{"date_filed":"2001-01-22T00:00:00Z","landlord_tenant":"Landlord","ground":"Intent to Withdraw","petition_number":"L010099","landlord_name":"Nancy L. Aristimuno","address":"1309 - 1311 Baker Street","city":"San Francisco","state":"CA","zip":"94115","created_at":"2013-07-14T19:19:01Z","updated_at":"2013-07-14T19:21:44Z","cartodb_georef_status":true,"cartodb_id":144},"geometry":{"type":"Point","coordinates":[-122.442915,37.783469]}},{"type":"Feature","properties":{"date_filed":"2006-09-26T00:00:00Z","landlord_tenant":"Landlord","ground":"Intent to Withdraw","petition_number":"L061443","landlord_name":"Lawrence Eric Warlen","address":"131 - 135 Clayton Street","city":"San Francisco","state":"CA","zip":"94117","created_at":"2013-07-14T19:19:01Z","updated_at":"2013-07-14T19:21:45Z","cartodb_georef_status":true,"cartodb_id":145},"geometry":{"type":"Point","coordinates":[-122.449483,37.774129]}},{"type":"Feature","properties":{"date_filed":"1999-11-29T00:00:00Z","landlord_tenant":"Landlord","ground":"Intent to Withdraw","petition_number":"L992465","landlord_name":"Frederick K Chin\nSandra L Chin","address":"1312 Shrader Street","city":"San Francisco","state":"CA","zip":"94117","created_at":"2013-07-14T19:19:01Z","updated_at":"2013-07-14T19:21:46Z","cartodb_georef_status":true,"cartodb_id":147},"geometry":{"type":"Point","coordinates":[-122.45068,37.76279]}},{"type":"Feature","properties":{"date_filed":"2003-09-02T00:00:00Z","landlord_tenant":"Landlord","ground":"Intent to Withdraw","petition_number":"L031139","landlord_name":"Kathleen E. Gratehouse\nKathleen O. Shanahan","address":"1315 - 1317 Cole Street","city":"San Francisco","state":"CA","zip":"94117","created_at":"2013-07-14T19:19:01Z","updated_at":"2013-07-14T19:21:46Z","cartodb_georef_status":true,"cartodb_id":148},"geometry":{"type":"Point","coordinates":[-122.449274,37.762375]}},{"type":"Feature","properties":{"date_filed":"2006-10-26T00:00:00Z","landlord_tenant":"Landlord","ground":"Intent to Withdraw","petition_number":"L061714","landlord_name":"Shawn  Dolgin","address":"1317 - 1319 19th Street","city":"San Francisco","state":"CA","zip":"94107","created_at":"2013-07-14T19:19:01Z","updated_at":"2013-07-14T19:21:47Z","cartodb_georef_status":true,"cartodb_id":149},"geometry":{"type":"Point","coordinates":[-122.395621,37.761359]}},{"type":"Feature","properties":{"date_filed":"2010-08-24T00:00:00Z","landlord_tenant":"Landlord","ground":"Intent to Withdraw","petition_number":"L101012","landlord_name":"Donny  Bendo","address":"132 - 134 Coleridge Street","city":"San Francisco","state":"CA","zip":"94110","created_at":"2013-07-14T19:19:01Z","updated_at":"2013-07-14T19:21:48Z","cartodb_georef_status":true,"cartodb_id":151},"geometry":{"type":"Point","coordinates":[-122.420053,37.761257]}},{"type":"Feature","properties":{"date_filed":"1999-12-29T00:00:00Z","landlord_tenant":"Landlord","ground":"Intent to Withdraw","petition_number":"L992691","landlord_name":"David & Ann  Serrato","address":"1320 Masonic Avenue","city":"San Francisco","state":"CA","zip":"94117","created_at":"2013-07-14T19:19:01Z","updated_at":"2013-07-14T19:21:50Z","cartodb_georef_status":true,"cartodb_id":153},"geometry":{"type":"Point","coordinates":[-122.44471,37.76888]}},{"type":"Feature","properties":{"date_filed":"2000-03-10T00:00:00Z","landlord_tenant":"Landlord","ground":"Intent to Withdraw","petition_number":"L021444","landlord_name":"John  Anderson\nAntone  Gonsalves\nSara  Greenwald","address":"1323 Lyon Street","city":"San Francisco","state":"CA","zip":"94115","created_at":"2013-07-14T19:19:01Z","updated_at":"2013-07-14T19:21:50Z","cartodb_georef_status":true,"cartodb_id":154},"geometry":{"type":"Point","coordinates":[-122.44491,37.78303]}},{"type":"Feature","properties":{"date_filed":"2010-11-23T00:00:00Z","landlord_tenant":"Landlord","ground":"Intent to Withdraw","petition_number":"L101450","landlord_name":"Yu  Fen Lin","address":"133 Jules Avenue","city":"San Francisco","state":"CA","zip":"94112","created_at":"2013-07-14T19:19:01Z","updated_at":"2013-07-14T19:21:50Z","cartodb_georef_status":true,"cartodb_id":155},"geometry":{"type":"Point","coordinates":[-122.461243,37.720594]}},{"type":"Feature","properties":{"date_filed":"2005-05-04T00:00:00Z","landlord_tenant":"Landlord","ground":"Intent to Withdraw","petition_number":"L050531","landlord_name":"Leavenworth & Reed Street, a Ltd. Liability Company  ","address":"1330 - 1340 Leavenworth Street","city":"San Francisco","state":"CA","zip":"94109","created_at":"2013-07-14T19:19:01Z","updated_at":"2013-07-14T19:21:51Z","cartodb_georef_status":true,"cartodb_id":156},"geometry":{"type":"Point","coordinates":[-122.416161,37.79328]}},{"type":"Feature","properties":{"date_filed":"2006-08-14T00:00:00Z","landlord_tenant":"Landlord","ground":"Intent to Withdraw","petition_number":"L061199","landlord_name":"Leavenworth & Reed Street, LLC  ","address":"1330 - 1340 Leavenworth Street","city":"San Francisco","state":"CA","zip":"94109","created_at":"2013-07-14T19:19:01Z","updated_at":"2013-07-14T19:21:51Z","cartodb_georef_status":true,"cartodb_id":157},"geometry":{"type":"Point","coordinates":[-122.416161,37.79328]}},{"type":"Feature","properties":{"date_filed":"2001-03-16T00:00:00Z","landlord_tenant":"Landlord","ground":"Intent to Withdraw","petition_number":"L010535","landlord_name":"Lucyann  Geiselman\nRobert L. Harrington","address":"1334 - 1338 Mcallister Street","city":"San Francisco","state":"CA","zip":"94115","created_at":"2013-07-14T19:19:01Z","updated_at":"2013-07-14T19:21:53Z","cartodb_georef_status":true,"cartodb_id":159},"geometry":{"type":"Point","coordinates":[-122.433984,37.778349]}},{"type":"Feature","properties":{"date_filed":"1999-12-27T00:00:00Z","landlord_tenant":"Landlord","ground":"Intent to Withdraw","petition_number":"L992656","landlord_name":"John P Willis","address":"1338 Filbert Street","city":"San Francisco","state":"CA","zip":"94109","created_at":"2013-07-14T19:19:01Z","updated_at":"2013-07-14T19:21:54Z","cartodb_georef_status":true,"cartodb_id":160},"geometry":{"type":"Point","coordinates":[-122.42147,37.79993]}},{"type":"Feature","properties":{"date_filed":"2007-10-05T00:00:00Z","landlord_tenant":"Landlord","ground":"Intent to Withdraw","petition_number":"L071555","landlord_name":"Stewart  Cooper\nYiqiu  Wei","address":"1343 - 1345 4th Avenue","city":"San Francisco","state":"CA","zip":"94122","created_at":"2013-07-14T19:19:01Z","updated_at":"2013-07-14T19:21:55Z","cartodb_georef_status":true,"cartodb_id":162},"geometry":{"type":"Point","coordinates":[-122.460934,37.763578]}},{"type":"Feature","properties":{"date_filed":"1999-08-17T00:00:00Z","landlord_tenant":"Landlord","ground":"Intent to Withdraw","petition_number":"L991650","landlord_name":"Angela  Alvarez\nManuel  Alvarez","address":"1344-1346 Utah Street","city":"San Francisco","state":"CA","zip":"94110","created_at":"2013-07-14T19:19:01Z","updated_at":"2013-07-14T19:21:56Z","cartodb_georef_status":true,"cartodb_id":163},"geometry":{"type":"Point","coordinates":[-122.405263,37.752456]}},{"type":"Feature","properties":{"date_filed":"1999-10-28T00:00:00Z","landlord_tenant":"Landlord","ground":"Intent to Withdraw","petition_number":"L992187","landlord_name":"Susan T Lee\nStephen K Lee Enterprises\nGiovanni  Toracca\nYvonne  Toracca","address":"1345-1361 Grant Avenue","city":"San Francisco","state":"CA","zip":"94133","created_at":"2013-07-14T19:19:01Z","updated_at":"2013-07-14T19:21:56Z","cartodb_georef_status":true,"cartodb_id":164},"geometry":{"type":"Point","coordinates":[-122.407278,37.799191]}},{"type":"Feature","properties":{"date_filed":"2004-04-29T00:00:00Z","landlord_tenant":"Landlord","ground":"Intent to Withdraw","petition_number":"L040614","landlord_name":"Michael A. Gallin\nKevin  Gortney\nPeter  Rosier","address":"1347 - 1353 Minna Street","city":"San Francisco","state":"CA","zip":"94103","created_at":"2013-07-14T19:19:01Z","updated_at":"2013-07-14T19:21:57Z","cartodb_georef_status":true,"cartodb_id":165},"geometry":{"type":"Point","coordinates":[-122.41916,37.767496]}},{"type":"Feature","properties":{"date_filed":"2007-06-18T00:00:00Z","landlord_tenant":"Landlord","ground":"Intent to Withdraw","petition_number":"L070849","landlord_name":"1649-1657 Washington Street, LLC  \nSan Francisco Partners, LLC  ","address":"1649 - 1657  Washington Street","city":"San Francisco","state":"CA","zip":"94109","created_at":"2013-07-14T19:19:01Z","updated_at":"2013-07-14T19:23:22Z","cartodb_georef_status":true,"cartodb_id":309},"geometry":{"type":"Point","coordinates":[-122.42496,37.8032]}},{"type":"Feature","properties":{"date_filed":"2002-03-18T00:00:00Z","landlord_tenant":"Landlord","ground":"Intent to Withdraw","petition_number":"L020545","landlord_name":"Charles E. Jackson\nFrances M. Jackson","address":"1347-1351 Oak Street","city":"San Francisco","state":"CA","zip":"94117","created_at":"2013-07-14T19:19:01Z","updated_at":"2013-07-14T19:21:57Z","cartodb_georef_status":true,"cartodb_id":167},"geometry":{"type":"Point","coordinates":[-122.441503,37.772608]}},{"type":"Feature","properties":{"date_filed":"1999-10-21T00:00:00Z","landlord_tenant":"Landlord","ground":"Intent to Withdraw","petition_number":"L992105","landlord_name":"Bonnie Y Lowe\nDennis E Lowe","address":"1350-1352 Lake Street","city":"San Francisco","state":"CA","zip":"94118","created_at":"2013-07-14T19:19:01Z","updated_at":"2013-07-14T19:21:59Z","cartodb_georef_status":true,"cartodb_id":169},"geometry":{"type":"Point","coordinates":[-122.473827,37.786264]}},{"type":"Feature","properties":{"date_filed":"2004-03-30T00:00:00Z","landlord_tenant":"Landlord","ground":"Intent to Withdraw","petition_number":"L040492","landlord_name":"Alda  Chan\nJoe Nim Chan","address":"1353 - 1357 Folsom Street","city":"San Francisco","state":"CA","zip":"94103","created_at":"2013-07-14T19:19:01Z","updated_at":"2013-07-14T19:21:59Z","cartodb_georef_status":true,"cartodb_id":170},"geometry":{"type":"Point","coordinates":[-122.412329,37.773216]}},{"type":"Feature","properties":{"date_filed":"2005-10-20T00:00:00Z","landlord_tenant":"Landlord","ground":"Intent to Withdraw","petition_number":"L051283","landlord_name":"Alda  Chan\nJoe Nim Chan","address":"1353 - 1357 Folsom Street","city":"San Francisco","state":"CA","zip":"94103","created_at":"2013-07-14T19:19:01Z","updated_at":"2013-07-14T19:22:00Z","cartodb_georef_status":true,"cartodb_id":171},"geometry":{"type":"Point","coordinates":[-122.412329,37.773216]}},{"type":"Feature","properties":{"date_filed":"2007-02-16T00:00:00Z","landlord_tenant":"Landlord","ground":"Intent to Withdraw","petition_number":"L070291","landlord_name":"Alda  Chan\nJoe Nim Chan","address":"1353 - 1357 Folsom Street","city":"San Francisco","state":"CA","zip":"94103","created_at":"2013-07-14T19:19:01Z","updated_at":"2013-07-14T19:22:01Z","cartodb_georef_status":true,"cartodb_id":172},"geometry":{"type":"Point","coordinates":[-122.412329,37.773216]}},{"type":"Feature","properties":{"date_filed":"2003-11-07T00:00:00Z","landlord_tenant":"Landlord","ground":"Intent to Withdraw","petition_number":"L031395","landlord_name":"The Kwok Chung  Wong and Har Kwan Luk Revocable Trust dated 2003  ","address":"1353 9th Avenue","city":"San Francisco","state":"CA","zip":"94122","created_at":"2013-07-14T19:19:01Z","updated_at":"2013-07-14T19:22:01Z","cartodb_georef_status":true,"cartodb_id":173},"geometry":{"type":"Point","coordinates":[-122.46656,37.76299]}},{"type":"Feature","properties":{"date_filed":"2012-07-31T00:00:00Z","landlord_tenant":"Landlord","ground":"Intent to Withdraw","petition_number":"L121221","landlord_name":"Century Club of California  ","address":"1355 Franklin Street","city":"San Francisco","state":"CA","zip":"94109","created_at":"2013-07-14T19:19:01Z","updated_at":"2013-07-14T19:22:02Z","cartodb_georef_status":true,"cartodb_id":174},"geometry":{"type":"Point","coordinates":[-122.42348,37.78706]}},{"type":"Feature","properties":{"date_filed":"1998-10-30T00:00:00Z","landlord_tenant":"Landlord","ground":"Intent to Withdraw","petition_number":"W001-15X","landlord_name":"George W Holmes\nLinda S Votaw","address":"1355-1357 Kansas Street","city":"San Francisco","state":"CA","zip":"94107","created_at":"2013-07-14T19:19:01Z","updated_at":"2013-07-14T19:22:04Z","cartodb_georef_status":true,"cartodb_id":176},"geometry":{"type":"Point","coordinates":[-122.402359,37.752547]}},{"type":"Feature","properties":{"date_filed":"2010-12-08T00:00:00Z","landlord_tenant":"Landlord","ground":"Intent to Withdraw","petition_number":"L101496","landlord_name":"Pia J. Hinckle\nR. Christian Mittelstaedt","address":"1356 - 1358 Broadway Street","city":"San Francisco","state":"CA","zip":"94109","created_at":"2013-07-14T19:19:01Z","updated_at":"2013-07-14T19:22:04Z","cartodb_georef_status":true,"cartodb_id":177},"geometry":{"type":"Point","coordinates":[-122.42496,37.8032]}},{"type":"Feature","properties":{"date_filed":"2006-01-24T00:00:00Z","landlord_tenant":"Landlord","ground":"Intent to Withdraw","petition_number":"L060114","landlord_name":"Kevin Philip Fox\nPhilip J. Fox, Trustee of the Philip John Fox 1996 Trust\nAndrew Asa Hindman","address":"1357 - 1361 Washington Street","city":"San Francisco","state":"CA","zip":"94109","created_at":"2013-07-14T19:19:01Z","updated_at":"2013-07-14T19:22:06Z","cartodb_georef_status":true,"cartodb_id":179},"geometry":{"type":"Point","coordinates":[-122.42496,37.8032]}},{"type":"Feature","properties":{"date_filed":"1999-12-29T00:00:00Z","landlord_tenant":"Landlord","ground":"Intent to Withdraw","petition_number":"L992688","landlord_name":"Rober & Claudia  Caceres","address":"1357 Revere Avenue","city":"San Francisco","state":"CA","zip":"94124","created_at":"2013-07-14T19:19:01Z","updated_at":"2013-07-14T19:22:06Z","cartodb_georef_status":true,"cartodb_id":180},"geometry":{"type":"Point","coordinates":[-122.385621,37.72908]}},{"type":"Feature","properties":{"date_filed":"1999-10-25T00:00:00Z","landlord_tenant":"Landlord","ground":"Intent to Withdraw","petition_number":"L992137","landlord_name":"Carole  Sheridan-Weir\nDaniel  Weir","address":"1359 5th Avenue","city":"San Francisco","state":"CA","zip":"94122","created_at":"2013-07-14T19:19:01Z","updated_at":"2013-07-14T19:22:07Z","cartodb_georef_status":true,"cartodb_id":181},"geometry":{"type":"Point","coordinates":[-122.46228,37.7631]}},{"type":"Feature","properties":{"date_filed":"2000-11-03T00:00:00Z","landlord_tenant":"Landlord","ground":"Intent to Withdraw","petition_number":"L2K2418","landlord_name":"Daniel  Oplinger\nStuart  Piontek","address":"1376 Masonic Avenue","city":"San Francisco","state":"CA","zip":"94117","created_at":"2013-07-14T19:19:01Z","updated_at":"2013-07-14T19:22:08Z","cartodb_georef_status":true,"cartodb_id":183},"geometry":{"type":"Point","coordinates":[-122.4445,37.76794]}},{"type":"Feature","properties":{"date_filed":"1998-01-28T00:00:00Z","landlord_tenant":"Landlord","ground":"Intent to Withdraw","petition_number":"S001-07X","landlord_name":"Helen  Wong\nShelton  Wong","address":"1379 21st Avenue","city":"San Francisco","state":"CA","zip":"94122","created_at":"2013-07-14T19:19:01Z","updated_at":"2013-07-14T19:22:08Z","cartodb_georef_status":true,"cartodb_id":184},"geometry":{"type":"Point","coordinates":[-122.47934,37.762]}},{"type":"Feature","properties":{"date_filed":"2002-07-23T00:00:00Z","landlord_tenant":"Landlord","ground":"Intent to Withdraw","petition_number":"L021187","landlord_name":"Ronald E. Rosden","address":"138 - 142 Sanchez Street","city":"San Francisco","state":"CA","zip":"94114","created_at":"2013-07-14T19:19:01Z","updated_at":"2013-07-14T19:22:10Z","cartodb_georef_status":true,"cartodb_id":186},"geometry":{"type":"Point","coordinates":[-122.431109,37.766961]}},{"type":"Feature","properties":{"date_filed":"2004-03-23T00:00:00Z","landlord_tenant":"Landlord","ground":"Intent to Withdraw","petition_number":"L040499","landlord_name":"Stephen C. O'Neal","address":"138 - 146 Beulah Street","city":"San Francisco","state":"CA","zip":"94117","created_at":"2013-07-14T19:19:01Z","updated_at":"2013-07-14T19:22:11Z","cartodb_georef_status":true,"cartodb_id":187},"geometry":{"type":"Point","coordinates":[-122.452141,37.767429]}},{"type":"Feature","properties":{"date_filed":"2000-08-09T00:00:00Z","landlord_tenant":"Landlord","ground":"Intent to Withdraw","petition_number":"L2K1680","landlord_name":"Thomas J Cashin\nNatasha S Tuck","address":"138 28th Street","city":"San Francisco","state":"CA","zip":"94131","created_at":"2013-07-14T19:19:01Z","updated_at":"2013-07-14T19:22:11Z","cartodb_georef_status":true,"cartodb_id":188},"geometry":{"type":"Point","coordinates":[-122.42551,37.74547]}},{"type":"Feature","properties":{"date_filed":"2003-01-13T00:00:00Z","landlord_tenant":"Landlord","ground":"Intent to Withdraw","petition_number":"L030098","landlord_name":"Cecelia C. Belous\nPeter N. Belous","address":"1380 - 1388 San Bruno Avenue","city":"San Francisco","state":"CA","zip":"94110","created_at":"2013-07-14T19:19:01Z","updated_at":"2013-07-14T19:22:12Z","cartodb_georef_status":true,"cartodb_id":191},"geometry":{"type":"Point","coordinates":[-122.404254,37.752066]}},{"type":"Feature","properties":{"date_filed":"2008-06-30T00:00:00Z","landlord_tenant":"Landlord","ground":"Intent to Withdraw","petition_number":"L081003","landlord_name":"Guo  Hong Wang","address":"1381 - 1383 19th Avenue","city":"San Francisco","state":"CA","zip":"94122","created_at":"2013-07-14T19:19:01Z","updated_at":"2013-07-14T19:22:13Z","cartodb_georef_status":true,"cartodb_id":192},"geometry":{"type":"Point","coordinates":[-122.477063,37.761997]}},{"type":"Feature","properties":{"date_filed":"2008-08-01T00:00:00Z","landlord_tenant":"Landlord","ground":"Intent to Withdraw","petition_number":"L081188","landlord_name":"Guo Hong  Wang","address":"1381 - 1383 19th Avenue","city":"San Francisco","state":"CA","zip":"94122","created_at":"2013-07-14T19:19:01Z","updated_at":"2013-07-14T19:22:14Z","cartodb_georef_status":true,"cartodb_id":193},"geometry":{"type":"Point","coordinates":[-122.477063,37.761997]}},{"type":"Feature","properties":{"date_filed":"2005-05-23T00:00:00Z","landlord_tenant":"Landlord","ground":"Intent to Withdraw","petition_number":"L050667","landlord_name":"Jackie  Tom","address":"139 - 141 Scott Street","city":"San Francisco","state":"CA","zip":"94117","created_at":"2013-07-14T19:19:01Z","updated_at":"2013-07-14T19:22:15Z","cartodb_georef_status":true,"cartodb_id":195},"geometry":{"type":"Point","coordinates":[-122.435268,37.770917]}},{"type":"Feature","properties":{"date_filed":"2004-04-09T00:00:00Z","landlord_tenant":"Landlord","ground":"Intent to Withdraw","petition_number":"L040504","landlord_name":"Patrician Realty Holding, Inc.  ","address":"139 5th Avenue","city":"San Francisco","state":"CA","zip":"94118","created_at":"2013-07-14T19:19:01Z","updated_at":"2013-07-14T19:22:15Z","cartodb_georef_status":true,"cartodb_id":196},"geometry":{"type":"Point","coordinates":[-122.46389,37.78599]}},{"type":"Feature","properties":{"date_filed":"1999-11-22T00:00:00Z","landlord_tenant":"Landlord","ground":"Intent to Withdraw","petition_number":"L992449","landlord_name":"Amado Y Cabezas\nMarjorie J Cabezas","address":"1394-1398 Mcallister Street","city":"San Francisco","state":"CA","zip":"94115","created_at":"2013-07-14T19:19:01Z","updated_at":"2013-07-14T19:22:16Z","cartodb_georef_status":true,"cartodb_id":198},"geometry":{"type":"Point","coordinates":[-122.434971,37.77823]}},{"type":"Feature","properties":{"date_filed":"2007-08-01T00:00:00Z","landlord_tenant":"Landlord","ground":"Intent to Withdraw","petition_number":"L071116","landlord_name":"Jason  Fayollat\nSoazick  Frelicot","address":"1400  Castro Street","city":"San Francisco","state":"CA","zip":"94114","created_at":"2013-07-14T19:19:01Z","updated_at":"2013-07-14T19:22:18Z","cartodb_georef_status":true,"cartodb_id":200},"geometry":{"type":"Point","coordinates":[-122.43427,37.75032]}},{"type":"Feature","properties":{"date_filed":"1999-08-05T00:00:00Z","landlord_tenant":"Landlord","ground":"Intent to Withdraw","petition_number":"L991561","landlord_name":"Nasir  Sheikh","address":"1401-1403 41st Avenue","city":"San Francisco","state":"CA","zip":"94122","created_at":"2013-07-14T19:19:01Z","updated_at":"2013-07-14T19:22:19Z","cartodb_georef_status":true,"cartodb_id":202},"geometry":{"type":"Point","coordinates":[-122.500568,37.760633]}},{"type":"Feature","properties":{"date_filed":"1998-07-13T00:00:00Z","landlord_tenant":"Landlord","ground":"Intent to Withdraw","petition_number":"T001-03X","landlord_name":"Nancy  Hamm\n1403 Montgomery Street Llc","address":"1403 Montgomery Street","city":"San Francisco","state":"CA","zip":"94133","created_at":"2013-07-14T19:19:01Z","updated_at":"2013-07-14T19:22:20Z","cartodb_georef_status":true,"cartodb_id":203},"geometry":{"type":"Point","coordinates":[-122.404672,37.802049]}},{"type":"Feature","properties":{"date_filed":"1998-07-16T00:00:00Z","landlord_tenant":"Landlord","ground":"Intent to Withdraw","petition_number":"T001-06X","landlord_name":"Margaret  Niver\nRonald  Niver","address":"1409 21st Avenue","city":"San Francisco","state":"CA","zip":"94122","created_at":"2013-07-14T19:19:01Z","updated_at":"2013-07-14T19:22:21Z","cartodb_georef_status":true,"cartodb_id":204},"geometry":{"type":"Point","coordinates":[-122.47929,37.76131]}},{"type":"Feature","properties":{"date_filed":"2002-11-06T00:00:00Z","landlord_tenant":"Landlord","ground":"Intent to Withdraw","petition_number":"L021787","landlord_name":"Adelina Yok Ching Wong\nArland Lop Lerng Wong\nJanet L. Wong\nWarren C. Wong","address":"1410 - 1412 25th Avenue","city":"San Francisco","state":"CA","zip":"94122","created_at":"2013-07-14T19:19:01Z","updated_at":"2013-07-14T19:22:22Z","cartodb_georef_status":true,"cartodb_id":206},"geometry":{"type":"Point","coordinates":[-122.483402,37.761176]}},{"type":"Feature","properties":{"date_filed":"2012-03-29T00:00:00Z","landlord_tenant":"Landlord","ground":"Intent to Withdraw","petition_number":"L120556","landlord_name":"Harold L. Combs, Trustee\nJoanna J. Combs, Trustee","address":"1410 Jefferson Street","city":"San Francisco","state":"CA","zip":"94123","created_at":"2013-07-14T19:19:01Z","updated_at":"2013-07-14T19:22:22Z","cartodb_georef_status":true,"cartodb_id":207},"geometry":{"type":"Point","coordinates":[-122.43589,37.80575]}},{"type":"Feature","properties":{"date_filed":"2004-08-02T00:00:00Z","landlord_tenant":"Landlord","ground":"Intent to Withdraw","petition_number":"L040960","landlord_name":"Hyuk Hyun  Park","address":"1415 - 1417 37th Avenue","city":"San Francisco","state":"CA","zip":"94122","created_at":"2013-07-14T19:19:01Z","updated_at":"2013-07-14T19:22:23Z","cartodb_georef_status":true,"cartodb_id":208},"geometry":{"type":"Point","coordinates":[-122.496287,37.76056]}},{"type":"Feature","properties":{"date_filed":"2004-01-13T00:00:00Z","landlord_tenant":"Landlord","ground":"Intent to Withdraw","petition_number":"L040073","landlord_name":"The Charles P. Huff Trust Dated 8/4/03 (Charles P. Huff, Trustee)  ","address":"166 - 168 20th Avenue","city":"San Francisco","state":"CA","zip":"94121","created_at":"2013-07-14T19:19:01Z","updated_at":"2013-07-14T19:23:26Z","cartodb_georef_status":true,"cartodb_id":314},"geometry":{"type":"Point","coordinates":[-122.479707,37.784689]}},{"type":"Feature","properties":{"date_filed":"1998-05-04T00:00:00Z","landlord_tenant":"Landlord","ground":"Intent to Withdraw","petition_number":"S001-13X","landlord_name":"Katherine  Forell\nAnne  Forell Romero\nVictor S Romero","address":"318 18th Avenue","city":"San Francisco","state":"CA","zip":"94121","created_at":"2013-07-14T19:19:01Z","updated_at":"2013-07-14T19:27:34Z","cartodb_georef_status":true,"cartodb_id":722},"geometry":{"type":"Point","coordinates":[-122.47718,37.78195]}},{"type":"Feature","properties":{"date_filed":"2005-05-16T00:00:00Z","landlord_tenant":"Landlord","ground":"Intent to Withdraw","petition_number":"L050662","landlord_name":"Chetcuti & Associates, Inc.  ","address":"1419 - 1425 South Van Ness Avenue","city":"San Francisco","state":"CA","zip":"94110","created_at":"2013-07-14T19:19:01Z","updated_at":"2013-07-14T19:22:24Z","cartodb_georef_status":true,"cartodb_id":211},"geometry":{"type":"Point","coordinates":[-122.416137,37.750465]}},{"type":"Feature","properties":{"date_filed":"2001-12-07T00:00:00Z","landlord_tenant":"Landlord","ground":"Intent to Withdraw","petition_number":"L012377","landlord_name":"San Francisco  Municipal Railway Employees Federal Credit Union","address":"1425 - 1427 Ocean Avenue","city":"San Francisco","state":"CA","zip":"94112","created_at":"2013-07-14T19:19:01Z","updated_at":"2013-07-14T19:22:25Z","cartodb_georef_status":true,"cartodb_id":212},"geometry":{"type":"Point","coordinates":[-122.457558,37.724178]}},{"type":"Feature","properties":{"date_filed":"2008-03-05T00:00:00Z","landlord_tenant":"Landlord","ground":"Intent to Withdraw","petition_number":"L080312","landlord_name":"Edith M. Kan\nStephen D. Kan","address":"1426 - 1430 Jackson Street","city":"San Francisco","state":"CA","zip":"94109","created_at":"2013-07-14T19:19:01Z","updated_at":"2013-07-14T19:22:26Z","cartodb_georef_status":true,"cartodb_id":213},"geometry":{"type":"Point","coordinates":[-122.42496,37.8032]}},{"type":"Feature","properties":{"date_filed":"2012-12-21T00:00:00Z","landlord_tenant":"Landlord","ground":"Intent to Withdraw","petition_number":"L122126","landlord_name":"Cameron K. Chun\nKaori  Ikeda Chun","address":"1426 18th Avenue","city":"San Francisco","state":"CA","zip":"94122","created_at":"2013-07-14T19:19:01Z","updated_at":"2013-07-14T19:22:26Z","cartodb_georef_status":true,"cartodb_id":214},"geometry":{"type":"Point","coordinates":[-122.47555,37.7612]}},{"type":"Feature","properties":{"date_filed":"2006-05-03T00:00:00Z","landlord_tenant":"Landlord","ground":"Intent to Withdraw","petition_number":"L060654","landlord_name":"Edith M. Kan\nStephen D. Kan","address":"1426-1430 Jackson Street","city":"San Francisco","state":"CA","zip":"94109","created_at":"2013-07-14T19:19:01Z","updated_at":"2013-07-14T19:22:27Z","cartodb_georef_status":true,"cartodb_id":215},"geometry":{"type":"Point","coordinates":[-122.418595,37.794496]}},{"type":"Feature","properties":{"date_filed":"2003-09-24T00:00:00Z","landlord_tenant":"Landlord","ground":"Intent to Withdraw","petition_number":"L031188","landlord_name":"W.B.  Coyle\nBill  Haskell","address":"1427 - 1431 Grant Avenue","city":"San Francisco","state":"CA","zip":"94133","created_at":"2013-07-14T19:19:01Z","updated_at":"2013-07-14T19:22:27Z","cartodb_georef_status":true,"cartodb_id":216},"geometry":{"type":"Point","coordinates":[-122.407454,37.799983]}},{"type":"Feature","properties":{"date_filed":"1999-12-20T00:00:00Z","landlord_tenant":"Landlord","ground":"Intent to Withdraw","petition_number":"L992621","landlord_name":"Shawn M. Nichols","address":"1428-1430 Sanchez Street","city":"San Francisco","state":"CA","zip":"94131","created_at":"2013-07-14T19:19:01Z","updated_at":"2013-07-14T19:22:28Z","cartodb_georef_status":true,"cartodb_id":218},"geometry":{"type":"Point","coordinates":[-122.429142,37.746325]}},{"type":"Feature","properties":{"date_filed":"2006-08-09T00:00:00Z","landlord_tenant":"Landlord","ground":"Intent to Withdraw","petition_number":"L061183","landlord_name":"Felicia Levy Weston\nShaun R. Weston","address":"143 - 145 Pfeiffer Street","city":"San Francisco","state":"CA","zip":"94133","created_at":"2013-07-14T19:19:01Z","updated_at":"2013-07-14T19:22:29Z","cartodb_georef_status":true,"cartodb_id":219},"geometry":{"type":"Point","coordinates":[-122.409117,37.804756]}},{"type":"Feature","properties":{"date_filed":"2004-09-01T00:00:00Z","landlord_tenant":"Landlord","ground":"Intent to Withdraw","petition_number":"L041105","landlord_name":"Glen  Dils\nEdward  Snyder","address":"1431 - 1433 Jefferson Street","city":"San Francisco","state":"CA","zip":"94123","created_at":"2013-07-14T19:19:01Z","updated_at":"2013-07-14T19:22:30Z","cartodb_georef_status":true,"cartodb_id":220},"geometry":{"type":"Point","coordinates":[-122.428726,37.802735]}},{"type":"Feature","properties":{"date_filed":"2000-06-01T00:00:00Z","landlord_tenant":"Landlord","ground":"Intent to Withdraw","petition_number":"L2K1174","landlord_name":"Margaret  Sheehan","address":"1436-1440 Valencia Street","city":"San Francisco","state":"CA","zip":"94110","created_at":"2013-07-14T19:19:01Z","updated_at":"2013-07-14T19:22:31Z","cartodb_georef_status":true,"cartodb_id":222},"geometry":{"type":"Point","coordinates":[-122.420438,37.749869]}},{"type":"Feature","properties":{"date_filed":"2005-05-27T00:00:00Z","landlord_tenant":"Landlord","ground":"Intent to Withdraw","petition_number":"L050668","landlord_name":"Karen  Chu\nOtto  Chu","address":"1439 Ocean Avenue","city":"San Francisco","state":"CA","zip":"94112","created_at":"2013-07-14T19:19:01Z","updated_at":"2013-07-14T19:22:32Z","cartodb_georef_status":true,"cartodb_id":224},"geometry":{"type":"Point","coordinates":[-122.45785,37.72399]}},{"type":"Feature","properties":{"date_filed":"2008-04-04T00:00:00Z","landlord_tenant":"Landlord","ground":"Intent to Withdraw","petition_number":"L080810","landlord_name":"Hiten  Madhani\nSuzanne  Noble","address":"144 - 144A Peralta Avenue","city":"San Francisco","state":"CA","zip":"94110","created_at":"2013-07-14T19:19:01Z","updated_at":"2013-07-14T19:22:32Z","cartodb_georef_status":true,"cartodb_id":225},"geometry":{"type":"Point","coordinates":[-122.40801,37.747109]}},{"type":"Feature","properties":{"date_filed":"1997-08-27T00:00:00Z","landlord_tenant":"Landlord","ground":"Intent to Withdraw","petition_number":"S001-02X","landlord_name":"Charles O Bradley\nLinda L Bradley\nKenneth  Burge\nSharon L Burge","address":"144 Shotwell Street","city":"San Francisco","state":"CA","zip":"94103","created_at":"2013-07-14T19:19:01Z","updated_at":"2013-07-14T19:22:33Z","cartodb_georef_status":true,"cartodb_id":226},"geometry":{"type":"Point","coordinates":[-122.4166,37.76612]}},{"type":"Feature","properties":{"date_filed":"2007-04-25T00:00:00Z","landlord_tenant":"Landlord","ground":"Intent to Withdraw","petition_number":"L070599","landlord_name":"1442-1448 Sacramento Street, LLC  \n527 Union, LLC  \nSacramento at Hyde, LLC  ","address":"1442 - 1448 Sacramento Street","city":"San Francisco","state":"CA","zip":"94109","created_at":"2013-07-14T19:19:01Z","updated_at":"2013-07-14T19:22:34Z","cartodb_georef_status":true,"cartodb_id":227},"geometry":{"type":"Point","coordinates":[-122.42496,37.8032]}},{"type":"Feature","properties":{"date_filed":"2007-04-27T00:00:00Z","landlord_tenant":"Landlord","ground":"Intent to Withdraw","petition_number":"L070694","landlord_name":"1442-1448 Sacramento Street, LLC  \n527 Union, LLC  \nSacramento at Hyde, LLC  ","address":"1442 - 1448 Sacramento Street","city":"San Francisco","state":"CA","zip":"94109","created_at":"2013-07-14T19:19:01Z","updated_at":"2013-07-14T19:22:34Z","cartodb_georef_status":true,"cartodb_id":228},"geometry":{"type":"Point","coordinates":[-122.42496,37.8032]}},{"type":"Feature","properties":{"date_filed":"2008-02-21T00:00:00Z","landlord_tenant":"Landlord","ground":"Intent to Withdraw","petition_number":"L080227","landlord_name":"Real Equity Group LLC, a California limited liability company  \nReal Equity Group Two LLC, a California limited  liability company  ","address":"1444 Vallejo Street","city":"San Francisco","state":"CA","zip":"94117","created_at":"2013-07-14T19:19:01Z","updated_at":"2013-07-14T19:22:36Z","cartodb_georef_status":true,"cartodb_id":230},"geometry":{"type":"Point","coordinates":[-122.421062,37.79701]}},{"type":"Feature","properties":{"date_filed":"2000-09-25T00:00:00Z","landlord_tenant":"Landlord","ground":"Intent to Withdraw","petition_number":"L2K2213","landlord_name":"Edward Jarvis & Judy Jarvis, Trustees  ","address":"145 26th Avenue","city":"San Francisco","state":"CA","zip":"94121","created_at":"2013-07-14T19:19:01Z","updated_at":"2013-07-14T19:22:36Z","cartodb_georef_status":true,"cartodb_id":231},"geometry":{"type":"Point","coordinates":[-122.48642,37.78673]}},{"type":"Feature","properties":{"date_filed":"2000-11-21T00:00:00Z","landlord_tenant":"Landlord","ground":"Intent to Withdraw","petition_number":"L2K2555","landlord_name":"Michael W Devincenzi\nThomas A Devincenzi","address":"1451 - 1453 Green Street","city":"San Francisco","state":"CA","zip":"94109","created_at":"2013-07-14T19:19:01Z","updated_at":"2013-07-14T19:22:37Z","cartodb_georef_status":true,"cartodb_id":233},"geometry":{"type":"Point","coordinates":[-122.42496,37.8032]}},{"type":"Feature","properties":{"date_filed":"2013-02-28T00:00:00Z","landlord_tenant":"Landlord","ground":"Intent to Withdraw","petition_number":"L130356","landlord_name":"Siu  Ying Lee, Trustee of the Siu Ying Lee 2008 Revocable Intervivos Trust","address":"1451 24th Avenue","city":"San Francisco","state":"CA","zip":"94122","created_at":"2013-07-14T19:19:01Z","updated_at":"2013-07-14T19:22:38Z","cartodb_georef_status":true,"cartodb_id":234},"geometry":{"type":"Point","coordinates":[-122.48246,37.76049]}},{"type":"Feature","properties":{"date_filed":"1999-04-05T00:00:00Z","landlord_tenant":"Landlord","ground":"Intent to Withdraw","petition_number":"L990667","landlord_name":"Michael  Devincenzi\nThomas  Devincenzi","address":"1451-1453 Green Street","city":"San Francisco","state":"CA","zip":"94109","created_at":"2013-07-14T19:19:01Z","updated_at":"2013-07-14T19:22:38Z","cartodb_georef_status":true,"cartodb_id":235},"geometry":{"type":"Point","coordinates":[-122.422957,37.797728]}},{"type":"Feature","properties":{"date_filed":"2002-08-19T00:00:00Z","landlord_tenant":"Landlord","ground":"Intent to Withdraw","petition_number":"L021387","landlord_name":"Barbara  Fedun","address":"1552 Guerrero Street","city":"San Francisco","state":"CA","zip":"94110","created_at":"2013-07-14T19:19:01Z","updated_at":"2013-07-14T19:22:39Z","cartodb_georef_status":true,"cartodb_id":277},"geometry":{"type":"Point","coordinates":[-122.422385,37.746325]}},{"type":"Feature","properties":{"date_filed":"2000-08-09T00:00:00Z","landlord_tenant":"Landlord","ground":"Intent to Withdraw","petition_number":"L2K1757","landlord_name":"Alice R Thomas\nThurle B Thomas","address":"1559 Howard Street","city":"San Francisco","state":"CA","zip":"94102","created_at":"2013-07-14T19:19:01Z","updated_at":"2013-07-14T19:22:40Z","cartodb_georef_status":true,"cartodb_id":278},"geometry":{"type":"Point","coordinates":[-122.41643,37.772342]}},{"type":"Feature","properties":{"date_filed":"1999-04-02T00:00:00Z","landlord_tenant":"Landlord","ground":"Intent to Withdraw","petition_number":"L990666","landlord_name":"Stephen H Adams\nBill  Nelson\nWalter G Parsley","address":"156-158 Corbett Avenue","city":"San Francisco","state":"CA","zip":"94114","created_at":"2013-07-14T19:19:01Z","updated_at":"2013-07-14T19:22:40Z","cartodb_georef_status":true,"cartodb_id":279},"geometry":{"type":"Point","coordinates":[-122.441842,37.761661]}},{"type":"Feature","properties":{"date_filed":"2003-02-05T00:00:00Z","landlord_tenant":"Landlord","ground":"Intent to Withdraw","petition_number":"L030341","landlord_name":"Estate of Pauline L. Mensing aka Pauline Louise Mensing, c/o James Wilhelm, Executor  \nMark  Mullin","address":"1458 - 1460 17th Avenue","city":"San Francisco","state":"CA","zip":"94122","created_at":"2013-07-14T19:19:01Z","updated_at":"2013-07-14T19:22:42Z","cartodb_georef_status":true,"cartodb_id":238},"geometry":{"type":"Point","coordinates":[-122.474761,37.760668]}},{"type":"Feature","properties":{"date_filed":"2005-05-02T00:00:00Z","landlord_tenant":"Landlord","ground":"Intent to Withdraw","petition_number":"L050507","landlord_name":"Tralee Management LLC, a California Limited Liability Company  ","address":"146 Portola Drive","city":"San Francisco","state":"CA","zip":"94131","created_at":"2013-07-14T19:19:01Z","updated_at":"2013-07-14T19:22:42Z","cartodb_georef_status":true,"cartodb_id":239},"geometry":{"type":"Point","coordinates":[-122.444051,37.748749]}},{"type":"Feature","properties":{"date_filed":"2006-07-20T00:00:00Z","landlord_tenant":"Landlord","ground":"Intent to Withdraw","petition_number":"L061084","landlord_name":"1460 Broadway, LLC, a California Limited Liability Company  ","address":"1460 Broadway Street","city":"San Francisco","state":"CA","zip":"94109","created_at":"2013-07-14T19:19:01Z","updated_at":"2013-07-14T19:22:43Z","cartodb_georef_status":true,"cartodb_id":240},"geometry":{"type":"Point","coordinates":[-122.215754,37.487112]}},{"type":"Feature","properties":{"date_filed":"2007-01-31T00:00:00Z","landlord_tenant":"Landlord","ground":"Intent to Withdraw","petition_number":"L070209","landlord_name":"Esperanza  Ahumada\nGus  Ahumada","address":"147 Charles Street","city":"San Francisco","state":"CA","zip":"94131","created_at":"2013-07-14T19:19:01Z","updated_at":"2013-07-14T19:22:44Z","cartodb_georef_status":true,"cartodb_id":241},"geometry":{"type":"Point","coordinates":[-122.42581,37.73823]}},{"type":"Feature","properties":{"date_filed":"2002-04-30T00:00:00Z","landlord_tenant":"Landlord","ground":"Intent to Withdraw","petition_number":"L020722","landlord_name":"William A. Boulanger Bypass Trust, Ellen S. Boulanger, Trustee\nEllen S. Boulanger Survivors Trust, Ellen S. Boulanger, Trustee","address":"1671 Dolores Street","city":"San Francisco","state":"CA","zip":"94110","created_at":"2013-07-14T19:19:01Z","updated_at":"2013-07-14T19:23:28Z","cartodb_georef_status":true,"cartodb_id":318},"geometry":{"type":"Point","coordinates":[-122.42402,37.74265]}},{"type":"Feature","properties":{"date_filed":"2007-05-24T00:00:00Z","landlord_tenant":"Landlord","ground":"Intent to Withdraw","petition_number":"L070823","landlord_name":"Edmund A. Herbert\nGemma C. Herbert","address":"1471 19th Avenue","city":"San Francisco","state":"CA","zip":"94122","created_at":"2013-07-14T19:19:01Z","updated_at":"2013-07-14T19:22:45Z","cartodb_georef_status":true,"cartodb_id":244},"geometry":{"type":"Point","coordinates":[-122.47706,37.76038]}},{"type":"Feature","properties":{"date_filed":"2010-12-14T00:00:00Z","landlord_tenant":"Landlord","ground":"Intent to Withdraw","petition_number":"L101506","landlord_name":"Iglesia Del Dios Vivo Columna Y Apoyo De La Verdad  \nElias  Duran","address":"1485 - 1487 Valencia Street","city":"San Francisco","state":"CA","zip":"94110","created_at":"2013-07-14T19:19:01Z","updated_at":"2013-07-14T19:22:46Z","cartodb_georef_status":true,"cartodb_id":246},"geometry":{"type":"Point","coordinates":[-122.42009,37.76179]}},{"type":"Feature","properties":{"date_filed":"2008-03-11T00:00:00Z","landlord_tenant":"Landlord","ground":"Intent to Withdraw","petition_number":"L080335","landlord_name":"Leonard Gerard Gandolfo","address":"15 - 19 San Carlos Street","city":"San Francisco","state":"CA","zip":"94110","created_at":"2013-07-14T19:19:01Z","updated_at":"2013-07-14T19:22:47Z","cartodb_georef_status":true,"cartodb_id":248},"geometry":{"type":"Point","coordinates":[-122.420158,37.762534]}},{"type":"Feature","properties":{"date_filed":"2004-07-20T00:00:00Z","landlord_tenant":"Landlord","ground":"Intent to Withdraw","petition_number":"L040928","landlord_name":"Alan  Aurich\nJonathan  Pearlman\nArleen  Westcott","address":"15 Buena Vista  Avenue East","city":"San Francisco","state":"CA","zip":"94117","created_at":"2013-07-14T19:19:01Z","updated_at":"2013-07-14T19:22:47Z","cartodb_georef_status":true,"cartodb_id":249},"geometry":{"type":"Point","coordinates":[-122.43951,37.7706]}},{"type":"Feature","properties":{"date_filed":"1999-03-15T00:00:00Z","landlord_tenant":"Landlord","ground":"Intent to Withdraw","petition_number":"L990517","landlord_name":"Phyllis  Schrobsdorff","address":"15 Rico Way","city":"San Francisco","state":"CA","zip":"94123","created_at":"2013-07-14T19:19:01Z","updated_at":"2013-07-14T19:22:48Z","cartodb_georef_status":true,"cartodb_id":250},"geometry":{"type":"Point","coordinates":[-122.43853,37.80468]}},{"type":"Feature","properties":{"date_filed":"2011-02-22T00:00:00Z","landlord_tenant":"Landlord","ground":"Intent to Withdraw","petition_number":"L110244","landlord_name":"Pathmark Group, LP  ","address":"1501 Diamond Street","city":"San Francisco","state":"CA","zip":"94131","created_at":"2013-07-14T19:19:01Z","updated_at":"2013-07-14T19:22:48Z","cartodb_georef_status":true,"cartodb_id":251},"geometry":{"type":"Point","coordinates":[-122.43543,37.74545]}},{"type":"Feature","properties":{"date_filed":"2012-05-16T00:00:00Z","landlord_tenant":"Landlord","ground":"Intent to Withdraw","petition_number":"L120766","landlord_name":"1506 Jackson LLC  ","address":"1506 Jackson Street","city":"San Francisco","state":"CA","zip":"94109","created_at":"2013-07-14T19:19:01Z","updated_at":"2013-07-14T19:22:49Z","cartodb_georef_status":true,"cartodb_id":252},"geometry":{"type":"Point","coordinates":[-122.419884,37.794334]}},{"type":"Feature","properties":{"date_filed":"2003-09-16T00:00:00Z","landlord_tenant":"Landlord","ground":"Intent to Withdraw","petition_number":"L031159","landlord_name":"Ana  de Arce\nShannon  Loftus\nSean  Martin\n  Thornburgh","address":"1509 - 1511 Baker Street","city":"San Francisco","state":"CA","zip":"94115","created_at":"2013-07-14T19:19:01Z","updated_at":"2013-07-14T19:22:50Z","cartodb_georef_status":true,"cartodb_id":253},"geometry":{"type":"Point","coordinates":[-122.4432,37.784928]}},{"type":"Feature","properties":{"date_filed":"2004-01-30T00:00:00Z","landlord_tenant":"Landlord","ground":"Intent to Withdraw","petition_number":"L040133","landlord_name":"Ana  de Arce\nShannon  Loftus\nSean  Martin\nCharles  Thornburgh","address":"1509 - 1511 Baker Street","city":"San Francisco","state":"CA","zip":"94115","created_at":"2013-07-14T19:19:01Z","updated_at":"2013-07-14T19:22:50Z","cartodb_georef_status":true,"cartodb_id":254},"geometry":{"type":"Point","coordinates":[-122.4432,37.784928]}},{"type":"Feature","properties":{"date_filed":"2006-05-11T00:00:00Z","landlord_tenant":"Landlord","ground":"Intent to Withdraw","petition_number":"L060744","landlord_name":"Adam  Blinn","address":"151 - 153 Russ Street","city":"San Francisco","state":"CA","zip":"94103","created_at":"2013-07-14T19:19:01Z","updated_at":"2013-07-14T19:22:51Z","cartodb_georef_status":true,"cartodb_id":255},"geometry":{"type":"Point","coordinates":[-122.407438,37.778213]}},{"type":"Feature","properties":{"date_filed":"1999-09-07T00:00:00Z","landlord_tenant":"Landlord","ground":"Intent to Withdraw","petition_number":"L991796","landlord_name":"Gillian  Gillett\nJeff  Goldberg\nKaren  Wickre","address":"1516-1518 Guerrero Street","city":"San Francisco","state":"CA","zip":"94110","created_at":"2013-07-14T19:19:01Z","updated_at":"2013-07-14T19:22:51Z","cartodb_georef_status":true,"cartodb_id":256},"geometry":{"type":"Point","coordinates":[-122.422443,37.746887]}},{"type":"Feature","properties":{"date_filed":"2001-10-03T00:00:00Z","landlord_tenant":"Landlord","ground":"Intent to Withdraw","petition_number":"L011792","landlord_name":"The Cecil H. Byrnes  Revocable Trust","address":"1518 9th Avenue","city":"San Francisco","state":"CA","zip":"94122","created_at":"2013-07-14T19:19:01Z","updated_at":"2013-07-14T19:22:52Z","cartodb_georef_status":true,"cartodb_id":257},"geometry":{"type":"Point","coordinates":[-122.46569,37.7599]}},{"type":"Feature","properties":{"date_filed":"2009-12-18T00:00:00Z","landlord_tenant":"Landlord","ground":"Intent to Withdraw","petition_number":"L091743","landlord_name":"John  Lateef\nCynthia  Thomas","address":"1520 - 1522 Hudson Avenue","city":"San Francisco","state":"CA","zip":"94124","created_at":"2013-07-14T19:19:01Z","updated_at":"2013-07-14T19:22:53Z","cartodb_georef_status":true,"cartodb_id":259},"geometry":{"type":"Point","coordinates":[-122.386824,37.739214]}},{"type":"Feature","properties":{"date_filed":"2005-01-18T00:00:00Z","landlord_tenant":"Landlord","ground":"Intent to Withdraw","petition_number":"L050063","landlord_name":"Sean P. Whelan","address":"1520 - 1530 Larkin Street","city":"San Francisco","state":"CA","zip":"94109","created_at":"2013-07-14T19:19:01Z","updated_at":"2013-07-14T19:22:54Z","cartodb_georef_status":true,"cartodb_id":260},"geometry":{"type":"Point","coordinates":[-122.42496,37.8032]}},{"type":"Feature","properties":{"date_filed":"2000-11-01T00:00:00Z","landlord_tenant":"Landlord","ground":"Intent to Withdraw","petition_number":"L2K2371","landlord_name":"Elizabeth  Kerman-morris\nEdward  Morris","address":"1520 Willard Street","city":"San Francisco","state":"CA","zip":"94117","created_at":"2013-07-14T19:19:01Z","updated_at":"2013-07-14T19:22:55Z","cartodb_georef_status":true,"cartodb_id":262},"geometry":{"type":"Point","coordinates":[-122.45366,37.76243]}},{"type":"Feature","properties":{"date_filed":"2013-01-09T00:00:00Z","landlord_tenant":"Landlord","ground":"Intent to Withdraw","petition_number":"L130020","landlord_name":"Jackson  Cheung\nJimmy  Cheung","address":"1521 Howard Street","city":"San Francisco","state":"CA","zip":"94103","created_at":"2013-07-14T19:19:01Z","updated_at":"2013-07-14T19:22:56Z","cartodb_georef_status":true,"cartodb_id":263},"geometry":{"type":"Point","coordinates":[-122.41579,37.7727]}},{"type":"Feature","properties":{"date_filed":"2013-02-13T00:00:00Z","landlord_tenant":"Landlord","ground":"Intent to Withdraw","petition_number":"L130260","landlord_name":"Jackson  Cheung\nJimmy  Cheung","address":"1521 Howard Street","city":"San Francisco","state":"CA","zip":"94103","created_at":"2013-07-14T19:19:01Z","updated_at":"2013-07-14T19:22:57Z","cartodb_georef_status":true,"cartodb_id":264},"geometry":{"type":"Point","coordinates":[-122.41579,37.7727]}},{"type":"Feature","properties":{"date_filed":"2006-04-06T00:00:00Z","landlord_tenant":"Landlord","ground":"Intent to Withdraw","petition_number":"L060501","landlord_name":"Elba E. Borgen\nLaura  Rogers","address":"1530 McAllister Street","city":"San Francisco","state":"CA","zip":"94115","created_at":"2013-07-14T19:19:01Z","updated_at":"2013-07-14T19:22:58Z","cartodb_georef_status":true,"cartodb_id":266},"geometry":{"type":"Point","coordinates":[-122.43726,37.77804]}},